id,inst,city,state,zip,acc,latitude,longitude,menonly,womenonly,adm_rate,sat_avg,ugds,ugds_white,ugds_black,ugds_hisp,ugds_asian,ugds_aian,ugds_nhpi,ugds_2mor,costt4_a,avgfacsal,age_entry,female,first_gen,median_hh_inc,poverty_rate,unemp_rate,avg_facsal_year
100654,0.716,Normal,AL,35762,Southern Association of Colleges and Schools Commission on Colleges,34.783368,-86.568502,0,0,0.716,954,5098,0.0184,0.8978,0.0114,0.0014,0.0027,0.001,0.0108,21924,8779,NULL,NULL,NULL,NULL,NULL,NULL,105348
100663,0.8854,Birmingham,AL,35294-0110,Southern Association of Colleges and Schools Commission on Colleges,33.505697,-86.799345,0,0,0.8854,1266,13284,0.5297,0.2458,0.0669,0.0767,0.0021,0.0004,0.0483,26248,11590,NULL,NULL,NULL,NULL,NULL,NULL,139080
100690,NA,Montgomery,AL,36117-3553,Southern Association of Colleges and Schools Commission on Colleges,32.362609,-86.17401,0,0,NA,NA,251,0.247,0.6932,0.0438,0,0,0.004,0,NULL,4672,NULL,NULL,NULL,NULL,NULL,NULL,56064
100706,0.7367,Huntsville,AL,35899,Southern Association of Colleges and Schools Commission on Colleges,34.724557,-86.640449,0,0,0.7367,1300,7358,0.7196,0.0871,0.061,0.0357,0.008,0.0012,0.0446,24869,9820,NULL,NULL,NULL,NULL,NULL,NULL,117840
100724,0.9799,Montgomery,AL,36104-0271,Southern Association of Colleges and Schools Commission on Colleges,32.364317,-86.295677,0,0,0.9799,955,3495,0.0152,0.9259,0.0129,0.002,0.0017,0.0014,0.0132,21938,7701,NULL,NULL,NULL,NULL,NULL,NULL,92412
100751,0.789,Tuscaloosa,AL,35487-0100,Southern Association of Colleges and Schools Commission on Colleges,33.211875,-87.545978,0,0,0.789,1244,30725,0.7676,0.105,0.0549,0.0137,0.0037,0.0008,0.0356,31050,10509,NULL,NULL,NULL,NULL,NULL,NULL,126108
100760,NA,Alexander City,AL,35010,Southern Association of Colleges and Schools Commission on Colleges,32.92478,-85.945266,0,0,NA,NA,940,0.7245,0.1947,0.0287,0.0021,0.0021,0,0.034,13930,6523,NULL,NULL,NULL,NULL,NULL,NULL,78276
100812,NA,Athens,AL,35611,Southern Association of Colleges and Schools Commission on Colleges,34.806793,-86.964698,0,0,NA,NA,2511,0.7634,0.1243,0.0426,0.0056,0.0131,0.0004,0.0307,NULL,8834,NULL,NULL,NULL,NULL,NULL,NULL,106008
100830,0.968,Montgomery,AL,36117-3596,Southern Association of Colleges and Schools Commission on Colleges,32.36736,-86.177544,0,0,0.968,1069,3742,0.4129,0.4487,0.0131,0.0283,0.004,0.0011,0.0371,20621,7885,NULL,NULL,NULL,NULL,NULL,NULL,94620
100858,0.7118,Auburn,AL,36849,Southern Association of Colleges and Schools Commission on Colleges,32.599378,-85.488258,0,0,0.7118,NA,24782,0.8181,0.0461,0.0382,0.0238,0.0027,0.0005,0.0281,32678,11093,NULL,NULL,NULL,NULL,NULL,NULL,133116
100937,0.6591,Birmingham,AL,35254,Southern Association of Colleges and Schools Commission on Colleges,33.513774,-86.850552,0,0,0.6591,1214,1048,0.729,0.1603,0.0573,0.0258,0.0038,0,0.0095,33920,7636,NULL,NULL,NULL,NULL,NULL,NULL,91632
101028,NA,Phenix City,AL,36869,Southern Association of Colleges and Schools Commission on Colleges,32.42391,-85.031485,0,0,NA,NA,1107,0.3406,0.4833,0.0641,0.0063,0.0018,0.0027,0.0614,9320,6452,NULL,NULL,NULL,NULL,NULL,NULL,77424
101116,NA,Montgomery,AL,36116,Southern Association of Colleges and Schools Commission on Colleges,32.342684,-86.216488,0,0,NA,NA,337,0.2582,0.6884,0.0237,0.0059,0,0.003,0.003,23107,5061,NULL,NULL,NULL,NULL,NULL,NULL,60732
101143,NA,Enterprise,AL,36330-1300,Southern Association of Colleges and Schools Commission on Colleges,31.297496,-85.836956,0,0,NA,NA,1336,0.6198,0.1991,0.0584,0.0075,0.0075,0.0015,0.0539,9454,8764,NULL,NULL,NULL,NULL,NULL,NULL,105168
101161,NA,Bay Minette,AL,36507-2698,Southern Association of Colleges and Schools Commission on Colleges,30.851343,-87.778193,0,0,NA,NA,5217,0.6396,0.2375,0.0339,0.0073,0.0155,0.0004,0.0447,12881,7345,NULL,NULL,NULL,NULL,NULL,NULL,88140
101189,0.646,Montgomery,AL,36109-3390,Southern Association of Colleges and Schools Commission on Colleges,32.384181,-86.21641,0,0,0.646,1042,1696,0.4599,0.4133,0.0318,0.0118,0.0018,0.0029,0.0265,36457,6271,NULL,NULL,NULL,NULL,NULL,NULL,75252
101240,NA,Gadsden,AL,35903,Southern Association of Colleges and Schools Commission on Colleges,33.994001,-85.991438,0,0,NA,NA,3513,0.6812,0.2024,0.0603,0.0043,0.0026,0.0014,0.0333,10619,6832,NULL,NULL,NULL,NULL,NULL,NULL,81984
101277,NA,Albertville,AL,35951,National Accrediting Commission of Career Arts and Sciences,34.27871,-86.196931,0,0,NA,NA,57,0.8421,0,0.1579,0,0,0,0,NULL,NA,NULL,NULL,NULL,NULL,NULL,NULL,NA
101286,NA,Dothan,AL,36303-9234,Southern Association of Colleges and Schools Commission on Colleges,31.315274,-85.465836,0,0,NA,NA,3191,0.5544,0.3231,0.0533,0.0081,0.0025,0.0006,0.0382,8791,6455,NULL,NULL,NULL,NULL,NULL,NULL,77460
101295,NA,Hanceville,AL,35077-2000,Southern Association of Colleges and Schools Commission on Colleges,34.072439,-86.781935,0,0,NA,NA,4303,0.798,0.0734,0.0785,0.0072,0.006,0.0005,0.0265,13196,7650,NULL,NULL,NULL,NULL,NULL,NULL,91800
101301,NA,Selma,AL,36702-2808,Southern Association of Colleges and Schools Commission on Colleges,32.445917,-87.013294,0,0,NA,NA,942,0.1645,0.7834,0.0138,0.0074,0,0,0.0202,9102,6309,NULL,NULL,NULL,NULL,NULL,NULL,75708
101365,0.9385,Birmingham,AL,35209,Higher Learning Commission,33.468466,-86.832465,0,0,0.9385,NA,608,0.3059,0.6151,0.0263,0.0066,0.0016,0.0016,0.0214,31202,6644,NULL,NULL,NULL,NULL,NULL,NULL,79728
101435,0.693,Montgomery,AL,36106-2148,Southern Association of Colleges and Schools Commission on Colleges,32.351034,-86.284366,0,0,0.693,1111,838,0.6599,0.2017,0.0632,0.0072,0.0048,0,0.043,39177,7133,NULL,NULL,NULL,NULL,NULL,NULL,85596
101453,NA,Florence,AL,35630-9977,Association for Biblical Higher Education,34.856153,-87.663051,0,0,NA,NA,71,0.8873,0.0563,0.0423,0,0,0,0.0141,16024,5072,NULL,NULL,NULL,NULL,NULL,NULL,60864
101462,NA,Huntsville,AL,35811,Southern Association of Colleges and Schools Commission on Colleges,34.771858,-86.572885,0,0,NA,NA,688,0.2253,0.6686,0.0349,0.0073,0.0131,0.0015,0.0436,11544,6085,NULL,NULL,NULL,NULL,NULL,NULL,73020
101471,NA,Deatsville,AL,36022,Council on Occupational Education,32.582312,-86.392369,0,0,NA,NA,400,0.435,0.5475,0.01,0,0,0.0025,0.0025,6084,5888,NULL,NULL,NULL,NULL,NULL,NULL,70656
101480,0.7634,Jacksonville,AL,36265,Southern Association of Colleges and Schools Commission on Colleges,33.822938,-85.765321,0,0,0.7634,1030,6992,0.626,0.2541,0.0037,0.0064,0.0054,0.0014,0,22023,7499,NULL,NULL,NULL,NULL,NULL,NULL,89988
101505,NA,Birmingham,AL,35215-3098,Southern Association of Colleges and Schools Commission on Colleges,33.652535,-86.707233,0,0,NA,NA,6143,0.5982,0.2559,0.0698,0.0192,0.0021,0,0.0273,14975,6996,NULL,NULL,NULL,NULL,NULL,NULL,83952
101514,NA,Tanner,AL,35671,Southern Association of Colleges and Schools Commission on Colleges,34.645844,-86.949674,0,0,NA,NA,6795,0.6235,0.1812,0.0846,0.0212,0.0132,0.001,0.0565,11507,7044,NULL,NULL,NULL,NULL,NULL,NULL,84528
101569,NA,Birmingham,AL,35221-1717,Southern Association of Colleges and Schools Commission on Colleges,33.450814,-86.888844,0,0,NA,NA,2779,0.1223,0.8035,0.0338,0.0018,0.0014,0,0.0306,13864,6854,NULL,NULL,NULL,NULL,NULL,NULL,82248
101587,0.7433,Livingston,AL,35470,Southern Association of Colleges and Schools Commission on Colleges,32.588132,-88.186329,0,0,0.7433,1017,2310,0.4472,0.3866,0.0225,0.0017,0.0117,0.0004,0.0173,22525,6730,NULL,NULL,NULL,NULL,NULL,NULL,80760
101602,NA,Andalusia,AL,36420-1224,Southern Association of Colleges and Schools Commission on Colleges,31.322947,-86.452262,0,0,NA,NA,1129,0.6811,0.2436,0.0257,0.0062,0.0044,0,0.0363,14826,6654,NULL,NULL,NULL,NULL,NULL,NULL,79848
101648,0.4535,Marion,AL,36756-3207,Southern Association of Colleges and Schools Commission on Colleges,32.623734,-87.322041,0,0,0.4535,1146,314,0.5955,0.2134,0.0732,0.0318,0.0096,0.0064,0.0541,18568,6652,NULL,NULL,NULL,NULL,NULL,NULL,79824
101675,NA,Fairfield,AL,35064-2621,Southern Association of Colleges and Schools Commission on Colleges,33.482442,-86.908751,0,0,NA,NA,1517,0.0343,0.9426,0.0092,0,0.0007,0,0,22857,4917,NULL,NULL,NULL,NULL,NULL,NULL,59004
101693,0.6409,Mobile,AL,36613-2842,Southern Association of Colleges and Schools Commission on Colleges,30.793247,-88.128934,0,0,0.6409,NA,1112,0.6448,0.1592,0.0036,0.0171,0.0225,0.0171,0.0207,37823,5411,NULL,NULL,NULL,NULL,NULL,NULL,64932
101709,0.9009,Montevallo,AL,35115-6000,Southern Association of Colleges and Schools Commission on Colleges,33.10625,-86.865099,0,0,0.9009,1131,2184,0.668,0.1694,0.06,0.0073,0.0032,0.0014,0.0398,26709,7518,NULL,NULL,NULL,NULL,NULL,NULL,90216
101736,NA,Muscle Shoals,AL,35661,Southern Association of Colleges and Schools Commission on Colleges,34.739788,-87.678089,0,0,NA,NA,2095,0.7437,0.1169,0.0893,0.0043,0.0067,0.0005,0.032,9617,6636,NULL,NULL,NULL,NULL,NULL,NULL,79632
101879,0.8997,Florence,AL,35632-0001,Southern Association of Colleges and Schools Commission on Colleges,34.80731,-87.680407,0,0,0.8997,NA,5165,0.7344,0.121,0.0426,0.0114,0.0052,0.0006,0.0379,21507,8567,NULL,NULL,NULL,NULL,NULL,NULL,102804
101897,NA,Rainsville,AL,35986,Southern Association of Colleges and Schools Commission on Colleges,34.545471,-85.911664,0,0,NA,NA,1565,0.7265,0.0256,0.1482,0.0058,0.0166,0.0006,0.0658,9260,7228,NULL,NULL,NULL,NULL,NULL,NULL,86736
101912,0.7185,Huntsville,AL,35896,Southern Association of Colleges and Schools Commission on Colleges,34.756344,-86.652705,0,0,0.7185,NA,1353,0.0015,0.8004,0.0828,0.0007,0.0015,0.0007,0.0273,37238,5011,NULL,NULL,NULL,NULL,NULL,NULL,60132
101994,NA,Evergreen,AL,36401,Council on Occupational Education,31.460265,-86.964797,0,0,NA,NA,254,0.3071,0.6575,0.0118,0.0079,0,0,0.0157,8598,6814,NULL,NULL,NULL,NULL,NULL,NULL,81768
102030,NA,Mobile,AL,36603-5898,Southern Association of Colleges and Schools Commission on Colleges,30.693972,-88.056982,0,0,NA,NA,1885,0.2159,0.6727,0.0292,0.0122,0.0058,0.0016,0.0302,10415,7178,NULL,NULL,NULL,NULL,NULL,NULL,86136
102049,0.8387,Birmingham,AL,35229-2240,Southern Association of Colleges and Schools Commission on Colleges,33.464128,-86.791799,0,0,0.8387,1236,3604,0.8513,0.0602,0.0402,0.0111,0.0011,0.0006,0.0233,51314,9220,NULL,NULL,NULL,NULL,NULL,NULL,110640
102067,NA,Tuscaloosa,AL,35405-8522,Southern Association of Colleges and Schools Commission on Colleges,33.120531,-87.56148,0,0,NA,NA,4018,0.5142,0.4124,0.0329,0.0067,0.004,0.0005,0.0204,14409,6739,NULL,NULL,NULL,NULL,NULL,NULL,80868
102076,NA,Boaz,AL,35957-0734,Southern Association of Colleges and Schools Commission on Colleges,34.201495,-86.169897,0,0,NA,NA,1537,0.6916,0.067,0.1757,0.0059,0.0033,0.0026,0.0351,13481,7150,NULL,NULL,NULL,NULL,NULL,NULL,85800
102094,0.7078,Mobile,AL,36688-0002,Southern Association of Colleges and Schools Commission on Colleges,30.696033,-88.178711,0,0,0.7078,1132,8631,0.6013,0.2233,0.0467,0.0393,0.0066,0.0013,0.0431,22139,7494,NULL,NULL,NULL,NULL,NULL,NULL,89928
102234,0.7152,Mobile,AL,36608-1791,Southern Association of Colleges and Schools Commission on Colleges,30.694751,-88.138199,0,0,0.7152,1019,989,0.6289,0.1405,0.0849,0.0162,0.0061,0.001,0.0192,56502,5519,NULL,NULL,NULL,NULL,NULL,NULL,66228
102270,0.758,Tuscaloosa,AL,35401,Southern Association of Colleges and Schools Commission on Colleges,33.200006,-87.585278,0,0,0.758,NA,721,0.0596,0.9279,0.0055,0.0014,0.0055,0,0,24540,5110,NULL,NULL,NULL,NULL,NULL,NULL,61320
102298,NA,Talladega,AL,35160,Southern Association of Colleges and Schools Commission on Colleges,33.433472,-86.112704,0,0,NA,NA,1144,0.0297,0.8444,0.0463,0.0009,0.0026,0.0009,0.014,22696,6315,NULL,NULL,NULL,NULL,NULL,NULL,75780
102313,NA,Montgomery,AL,36108-3199,Southern Association of Colleges and Schools Commission on Colleges,32.350109,-86.343057,0,0,NA,NA,1522,0.1827,0.7398,0.0322,0.0118,0.0026,0.0013,0.0184,12098,6674,NULL,NULL,NULL,NULL,NULL,NULL,80088
102368,0.9527,Troy,AL,36082-0001,Southern Association of Colleges and Schools Commission on Colleges,31.799583,-85.95802,0,0,0.9527,1082,10916,0.5297,0.3269,0.0453,0.0063,0.0029,0.0012,0.0407,21376,7194,NULL,NULL,NULL,NULL,NULL,NULL,86328
102377,0.342,Tuskegee,AL,36088-1920,Southern Association of Colleges and Schools Commission on Colleges,32.4309,-85.708492,0,0,0.342,1080,2184,0.0078,0.9093,0.0041,0.006,0.0041,0.0009,0.0302,41991,7398,NULL,NULL,NULL,NULL,NULL,NULL,88776
102395,1,Daphne,AL,36526-7055,Southern Association of Colleges and Schools Commission on Colleges,30.639329,-87.91163,0,0,1,NA,68,0.4853,0.2206,0.1324,0.0147,0.0147,0,0.0588,NULL,6266,NULL,NULL,NULL,NULL,NULL,NULL,75192
102429,NA,Jasper,AL,35501,Southern Association of Colleges and Schools Commission on Colleges,33.836929,-87.266406,0,0,NA,NA,2291,0.7324,0.1855,0.0271,0.0044,0.0013,0,0.0323,15406,7015,NULL,NULL,NULL,NULL,NULL,NULL,84180
102553,0.6905,Anchorage,AK,99508,Northwest Commission on Colleges and Universities,61.190163,-149.82619,0,0,0.6905,NA,7284,0.4942,0.0339,0.1001,0.0951,0.0563,0.0347,0.124,20548,9370,NULL,NULL,NULL,NULL,NULL,NULL,112440
102580,NA,Palmer,AK,99645,Association for Biblical Higher Education,61.598553,-149.111972,0,0,NA,NA,37,0.8919,0.027,0,0.027,0,0.027,0.027,20897,NA,NULL,NULL,NULL,NULL,NULL,NULL,NA
102614,0.6469,Fairbanks,AK,99775,Northwest Commission on Colleges and Universities,64.85756,-147.823146,0,0,0.6469,1169,4108,0.5241,0.037,0.0859,0.0243,0.1446,0.0063,0.1083,19621,9570,NULL,NULL,NULL,NULL,NULL,NULL,114840
102632,0.5625,Juneau,AK,99801-8697,Northwest Commission on Colleges and Universities,58.384846,-134.638255,0,0,0.5625,NA,999,0.5626,0.009,0.0801,0.04,0.1221,0.017,0.1271,16275,8436,NULL,NULL,NULL,NULL,NULL,NULL,101232
102669,0.9603,Anchorage,AK,99508,Northwest Commission on Colleges and Universities,61.190968,-149.804168,0,0,0.9603,NA,347,0.3055,0.0317,0.1037,0.049,0.2334,0.0115,0.1354,38278,6497,NULL,NULL,NULL,NULL,NULL,NULL,77964
102711,NA,Seward,AK,99664-0889,Council on Occupational Education,60.110626,-149.444487,0,0,NA,NA,259,0.4865,0.0039,0.0232,0.0154,0.2471,0.0039,0.0772,NULL,NA,NULL,NULL,NULL,NULL,NULL,NULL,NA
102845,NA,Vancouver,WA,98683-7575,Accrediting Bureau of Health Education Schools,45.617798,-122.494766,0,0,NA,NA,2215,0.3738,0.0519,0.1359,0.0284,0.1025,0.0388,0.0817,32511,4921,NULL,NULL,NULL,NULL,NULL,NULL,59052
103501,NA,Anchorage,AK,99507-1033,Accrediting Commission of Career Schools and Colleges,61.181443,-149.856954,0,0,NA,NA,317,0.3186,0.0915,0.0915,0.2208,0.1861,0.0126,0.0473,NULL,4139,NULL,NULL,NULL,NULL,NULL,NULL,49668
103741,NA,Tucson,AZ,85716,National Accrediting Commission of Career Arts and Sciences,32.235657,-110.927187,0,0,NA,NA,138,0.2319,0.087,0.4928,0.0072,0.0072,0,0.0435,NULL,NA,NULL,NULL,NULL,NULL,NULL,NULL,NA
103893,NA,Phoenix,AZ,85051-4063,Western Association of Schools and Colleges Accrediting Commission for Community and Junior Colleges,33.565758,-112.104601,0,0,NA,NA,1281,0.2108,0.0898,0.5433,0.0203,0.0406,0.0023,0.0164,NULL,5694,NULL,NULL,NULL,NULL,NULL,NULL,68328
103909,NA,Mesa,AZ,85210-5005,Western Association of Schools and Colleges Accrediting Commission for Community and Junior Colleges,33.39248,-111.853218,0,0,NA,NA,591,0.269,0.0795,0.4382,0.0338,0.0897,0.0034,0.0068,NULL,6628,NULL,NULL,NULL,NULL,NULL,NULL,79536
103927,NA,Tucson,AZ,85745-2974,Western Association of Schools and Colleges Accrediting Commission for Community and Junior Colleges,32.224391,-110.983056,0,0,NA,NA,517,0.1857,0.0774,0.6306,0.0193,0.0174,0.0019,0.0135,NULL,5362,NULL,NULL,NULL,NULL,NULL,NULL,64344
103954,NA,Tucson,AZ,85712,National Accrediting Commission of Career Arts and Sciences,32.237253,-110.872305,0,0,NA,NA,48,0.25,0.125,0.4792,0.0208,0.0208,0,0.1042,NULL,NA,NULL,NULL,NULL,NULL,NULL,NULL,NA
103963,NA,Glendale,AZ,85301-3579,Accrediting Commission of Career Schools and Colleges,33.537249,-112.157344,0,0,NA,NA,398,0.299,0.1281,0.3894,0.0151,0.1156,0.0025,0.0427,NULL,NA,NULL,NULL,NULL,NULL,NULL,NULL,NA
104090,NA,Phoenix,AZ,85021,Accrediting Bureau of Health Education Schools,33.566102,-112.112473,0,0,NA,NA,1000,0.261,0.127,0.302,0.047,0.057,0.006,0.025,NULL,4348,NULL,NULL,NULL,NULL,NULL,NULL,52176
104151,0.8819,Tempe,AZ,85287,Higher Learning Commission,33.417721,-111.934383,0,0,0.8819,NA,64216,0.4637,0.044,0.262,0.0837,0.0114,0.0019,0.0506,26992,11668,NULL,NULL,NULL,NULL,NULL,NULL,140016
104160,NA,Yuma,AZ,85365-8834,Higher Learning Commission,32.689306,-114.495968,0,0,NA,NA,7388,0.1174,0.0119,0.6913,0.0072,0.0095,0.0011,0.0149,15598,7480,NULL,NULL,NULL,NULL,NULL,NULL,89760
104179,0.8727,Tucson,AZ,85721-0066,Western Association of Schools and Colleges Senior Colleges and University Commission,32.232672,-110.950815,0,0,0.8727,1230,36560,0.4963,0.0406,0.2842,0.0502,0.0128,0.002,0.0492,27985,11400,NULL,NULL,NULL,NULL,NULL,NULL,136800
104346,NA,Coolidge,AZ,85128-9030,Higher Learning Commission,32.957092,-111.652501,0,0,NA,NA,4388,0.4088,0.0624,0.3731,0.0201,0.0367,0.0034,0.0431,10402,6834,NULL,NULL,NULL,NULL,NULL,NULL,82008
104391,NA,Lake Havasu City,AZ,86403,National Accrediting Commission of Career Arts and Sciences,34.477485,-114.332686,0,0,NA,NA,56,0.6071,0.0179,0.1964,0,0.0536,0,0,NULL,NA,NULL,NULL,NULL,NULL,NULL,NULL,NA
104425,NA,Sierra Vista,AZ,85635-2317,Higher Learning Commission,31.564597,-110.246946,0,0,NA,NA,2922,0.3597,0.053,0.4942,0.0127,0.0089,0.0031,0.0428,12103,6461,NULL,NULL,NULL,NULL,NULL,NULL,77532
104443,NA,Chandler,AZ,85224,National Accrediting Commission of Career Arts and Sciences,33.347586,-111.860423,0,0,NA,NA,43,0.3023,0.2558,0.1163,0.0233,0.0233,0,0.0233,NULL,NA,NULL,NULL,NULL,NULL,NULL,NULL,NA
104568,NA,Mesa,AZ,85210,National Accrediting Commission of Career Arts and Sciences,33.376583,-111.858305,0,0,NA,NA,377,0.3793,0.1141,0.3793,0.0027,0.0239,0.0053,0.0212,NULL,NA,NULL,NULL,NULL,NULL,NULL,NULL,NA
104577,NA,Thatcher,AZ,85552-0769,Higher Learning Commission,32.843664,-109.76234,0,0,NA,NA,3187,0.6153,0.021,0.2294,0.0094,0.0624,0.0041,0.0144,16509,8011,NULL,NULL,NULL,NULL,NULL,NULL,96132
104586,0.7376,Prescott,AZ,86301-3720,Southern Association of Colleges and Schools Commission on Colleges,34.616766,-112.449741,0,0,0.7376,1240,3015,0.5864,0.0202,0.1516,0.0624,0.0063,0.0036,0.0647,56260,9290,NULL,NULL,NULL,NULL,NULL,NULL,111480
104665,NA,Paradise Valley,AZ,85253,Higher Learning Commission,33.566649,-111.941953,0,0,NA,NA,NULL,NULL,NULL,NULL,NULL,NULL,NULL,NULL,NULL,3213,NULL,NULL,NULL,NULL,NULL,NULL,38556
104708,NA,Glendale,AZ,85302,Higher Learning Commission,33.570226,-112.190735,0,0,NA,NA,10528,0.3749,0.0666,0.422,0.0444,0.0136,0.0021,0.0461,15020,9548,NULL,NULL,NULL,NULL,NULL,NULL,114576
104717,0.8284,Phoenix,AZ,85017,Higher Learning Commission,33.513231,-112.129929,0,0,0.8284,NA,64210,0.4855,0.1499,0.2302,0.0317,0.0095,0.0066,0.0456,31393,6956,NULL,NULL,NULL,NULL,NULL,NULL,83472
105145,NA,Phoenix,AZ,85034,Higher Learning Commission,33.449686,-111.997077,0,0,NA,NA,3691,0.285,0.1084,0.4787,0.0393,0.0322,0.0027,0.0398,15327,8577,NULL,NULL,NULL,NULL,NULL,NULL,102924
105154,NA,Mesa,AZ,85202,Higher Learning Commission,33.390323,-111.871255,0,0,NA,NA,12167,0.4452,0.0593,0.336,0.0396,0.0341,0.0039,0.0472,16002,9582,NULL,NULL,NULL,NULL,NULL,NULL,114984
105206,NA,Kingman,AZ,86409-1238,Higher Learning Commission,35.270996,-114.029838,0,0,NA,NA,2622,0.6472,0.0133,0.2475,0.0156,0.0206,0.0061,0.0297,11046,6171,NULL,NULL,NULL,NULL,NULL,NULL,74052
105215,NA,Avondale,AZ,85323,Accrediting Commission of Career Schools and Colleges,33.453005,-112.288123,0,0,NA,NA,779,0.6098,0.0488,0.1528,0.0039,0.0218,0.0077,0.1232,NULL,5170,NULL,NULL,NULL,NULL,NULL,NULL,62040
105297,NA,Tsaile,AZ,86556,Higher Learning Commission,36.293328,-109.21684,0,0,NA,NA,1224,0.009,0.0025,0.0033,0,0.9796,0.0008,0.0008,14140,6347,NULL,NULL,NULL,NULL,NULL,NULL,76164
105330,0.7835,Flagstaff,AZ,86011-4092,Higher Learning Commission,35.188449,-111.653724,0,0,0.7835,NA,23772,0.5602,0.0309,0.2608,0.0218,0.0283,0.0027,0.0567,28480,8903,NULL,NULL,NULL,NULL,NULL,NULL,106836
105349,NA,Holbrook,AZ,86025-0610,Higher Learning Commission,34.93031,-110.142199,0,0,NA,NA,1124,0.4235,0.0009,0.1201,0.0107,0.3888,0.0036,0.0125,14079,6888,NULL,NULL,NULL,NULL,NULL,NULL,82656
105367,NA,Phoenix,AZ,85021,NULL,33.572173,-112.113001,0,0,NA,NA,348,0.4856,0.0718,0.3132,0.0259,0.0201,0,0.0057,NULL,6026,NULL,NULL,NULL,NULL,NULL,NULL,72312
105428,NA,Phoenix,AZ,85013,Higher Learning Commission,33.481361,-112.088293,0,0,NA,NA,6674,0.2206,0.0947,0.5641,0.0292,0.025,0.001,0.0366,15974,9206,NULL,NULL,NULL,NULL,NULL,NULL,110472
105525,NA,Tucson,AZ,85709-1275,Higher Learning Commission,32.222125,-110.886659,0,0,NA,NA,13128,0.3537,0.0491,0.4911,0.0275,0.0197,0.003,0.0264,8648,7256,NULL,NULL,NULL,NULL,NULL,NULL,87072
105534,NA,Tucson,AZ,85712,Accrediting Bureau of Health Education Schools,32.248067,-110.878783,0,0,NA,NA,2485,0.3513,0.0861,0.3911,0.0503,0.0225,0.0068,0.0849,NULL,5216,NULL,NULL,NULL,NULL,NULL,NULL,62592
105543,NA,Albuquerque,NM,87110,Accrediting Bureau of Health Education Schools,35.104855,-106.59488,0,0,NA,NA,782,0.1662,0.0205,0.4872,0.0141,0.2174,0.0026,0.0818,NULL,5252,NULL,NULL,NULL,NULL,NULL,NULL,63024
105589,0.9932,Prescott,AZ,86301,Higher Learning Commission,34.5452,-112.477185,0,0,0.9932,NA,383,0.6789,0.0287,0.0444,0.0183,0.0235,0.0026,0.0261,44892,5070,NULL,NULL,NULL,NULL,NULL,NULL,60840
105659,NA,Phoenix,AZ,85034-1816,Accrediting Commission of Career Schools and Colleges,33.448692,-111.989357,0,0,NA,NA,1007,0.3456,0.1053,0.3297,0.0129,0.1559,0.0089,0.005,NULL,4379,NULL,NULL,NULL,NULL,NULL,NULL,52548
105668,NA,Tempe,AZ,85281,Higher Learning Commission,33.413309,-111.97417,0,0,NA,NA,3824,0.4603,0.1015,0.3154,0.0256,0.0199,0.0029,0.0515,14123,6744,NULL,NULL,NULL,NULL,NULL,NULL,80928
105677,NA,Phoenix,AZ,85007,Accrediting Commission of Career Schools and Colleges,33.45489,-112.086161,0,0,NA,NA,12,0.9167,0,0,0.0833,0,0,0,NULL,NA,NULL,NULL,NULL,NULL,NULL,NULL,NA
105747,NA,Scottsdale,AZ,85256,Higher Learning Commission,33.51135,-111.885186,0,0,NA,NA,4764,0.5267,0.051,0.2655,0.0298,0.0432,0.0017,0.051,16557,9887,NULL,NULL,NULL,NULL,NULL,NULL,118644
105792,NA,Phoenix,AZ,85042,Higher Learning Commission,33.382406,-112.032635,0,0,NA,NA,2395,0.1495,0.1457,0.5754,0.0225,0.0355,0.0025,0.0463,15440,9586,NULL,NULL,NULL,NULL,NULL,NULL,115032
105899,0.7594,Glendale,AZ,85306-3216,Higher Learning Commission,33.622952,-112.181776,0,0,0.7594,1043,1012,0.4634,0.1067,0.2806,0.0119,0.0148,0.0059,0.0751,47850,5291,NULL,NULL,NULL,NULL,NULL,NULL,63492
106041,NA,Avondale,AZ,85323,Accrediting Commission of Career Schools and Colleges,33.453005,-112.288123,0,0,NA,NA,1995,0.2692,0.0241,0.2135,0.016,0.0386,0.019,0.0872,NULL,5472,NULL,NULL,NULL,NULL,NULL,NULL,65664
106148,NA,Prescott,AZ,86301,Higher Learning Commission,34.547495,-112.453395,0,0,NA,NA,4004,0.6216,0.0125,0.2145,0.0115,0.024,0.004,0.0355,12567,7748,NULL,NULL,NULL,NULL,NULL,NULL,92976
106245,0.5769,Little Rock,AR,72204,Higher Learning Commission,34.723254,-92.339778,0,0,0.5769,1119,5025,0.4917,0.2521,0.0289,0.0225,0.0092,0,0.1522,20260,7772,NULL,NULL,NULL,NULL,NULL,NULL,93264
106263,NA,Little Rock,AR,72205-7199,Higher Learning Commission,34.750152,-92.322348,0,0,NA,NA,1072,0.6427,0.1185,0.0849,0.0662,0.0028,0,0.0308,NULL,9475,NULL,NULL,NULL,NULL,NULL,NULL,113700
106306,NA,Little Rock,AR,72202-6068,Higher Learning Commission,34.734751,-92.290555,0,0,NA,NA,414,0.0821,0.7971,0.0338,0,0.0024,0.0097,0.0169,22127,4397,NULL,NULL,NULL,NULL,NULL,NULL,52764
106315,NA,Little Rock,AR,72209,National Accrediting Commission of Career Arts and Sciences,34.672171,-92.343366,0,0,NA,NA,28,0.2143,0.5714,0.2143,0,0,0,0,NULL,NA,NULL,NULL,NULL,NULL,NULL,NULL,NA
106324,NA,Russellville,AR,72801,Accrediting Commission of Career Schools and Colleges,35.27902,-93.135369,0,0,NA,NA,33,0.7576,0.0303,0.1818,0,0,0.0303,0,NULL,NA,NULL,NULL,NULL,NULL,NULL,NULL,NA
106342,0.2721,Batesville,AR,72501,Higher Learning Commission,35.777619,-91.625354,0,0,0.2721,1163,576,0.5747,0.0642,0.0955,0.0191,0.0104,0.0035,0.0069,33415,6087,NULL,NULL,NULL,NULL,NULL,NULL,73044
106351,NA,North Little Rock,AR,72114,Accrediting Commission of Career Schools and Colleges,34.753843,-92.266429,0,0,NA,NA,62,0.1129,0.8548,0.0323,0,0,0,0,NULL,NA,NULL,NULL,NULL,NULL,NULL,NULL,NA
106360,NA,Fort Smith,AR,72901-3342,National Accrediting Commission of Career Arts and Sciences,35.379955,-94.410967,0,0,NA,NA,25,0.76,0.12,0.08,0,0.04,0,0,NULL,NA,NULL,NULL,NULL,NULL,NULL,NULL,NA
106397,0.8267,Fayetteville,AR,72701,Higher Learning Commission,36.070009,-94.176981,0,0,0.8267,1188,24001,0.7387,0.0446,0.1039,0.0279,0.0077,0.0012,0.0467,23843,10047,NULL,NULL,NULL,NULL,NULL,NULL,120564
106412,0.6753,Pine Bluff,AR,71601,Higher Learning Commission,34.244031,-92.018683,0,0,0.6753,902,2444,0.0286,0.9043,0.0221,0.0025,0.0053,0.0004,0.0233,18873,6008,NULL,NULL,NULL,NULL,NULL,NULL,72096
106449,NA,Beebe,AR,72012-1000,Higher Learning Commission,35.074176,-91.895351,0,0,NA,NA,1787,0.8428,0.0571,0.0526,0.0101,0.005,0.0028,0.0269,15021,5096,NULL,NULL,NULL,NULL,NULL,NULL,61152
106458,0.6329,Jonesboro,AR,72401,Higher Learning Commission,35.842388,-90.679988,0,0,0.6329,1149,7478,0.7113,0.14,0.0444,0.0102,0.0028,0.0007,0.0321,21752,7423,NULL,NULL,NULL,NULL,NULL,NULL,89076
106467,0.9437,Russellville,AR,72801-2222,Higher Learning Commission,35.293237,-93.13562,0,0,0.9437,NA,6467,0.7299,0.0721,0.0971,0.0156,0.0076,0.0009,0.0492,19857,6845,NULL,NULL,NULL,NULL,NULL,NULL,82140
106485,NA,Monticello,AR,71656,Higher Learning Commission,33.590909,-91.811153,0,0,NA,NA,1946,0.5206,0.2929,0.0704,0.0051,0.0015,0,0.1033,19028,5550,NULL,NULL,NULL,NULL,NULL,NULL,66600
106494,NA,Jacksonville,AR,72076,National Accrediting Commission of Career Arts and Sciences,34.891572,-92.102579,0,0,NA,NA,38,0.6842,0.2895,0.0263,0,0,0,0,NULL,NA,NULL,NULL,NULL,NULL,NULL,NULL,NA
106546,0,Little Rock,AR,72210-2827,Accrediting Bureau of Health Education Schools,34.713115,-92.40692,0,0,0,NA,666,0.5961,0.2883,0.0646,0.012,0.0045,0,0.03,24888,6733,NULL,NULL,NULL,NULL,NULL,NULL,80796
106625,NA,Pocahontas,AR,72455,Higher Learning Commission,36.239793,-90.951033,0,0,NA,NA,1068,0.8979,0.0309,0.0365,0.0037,0.0009,0.0019,0.0215,13317,4916,NULL,NULL,NULL,NULL,NULL,NULL,58992
106704,0.9237,Conway,AR,72035-0001,Higher Learning Commission,35.077945,-92.457672,0,0,0.9237,1133,7763,0.6571,0.1671,0.0642,0.0219,0.003,0.001,0.0468,21408,7271,NULL,NULL,NULL,NULL,NULL,NULL,87252
106713,0.616,Conway,AR,72034,Higher Learning Commission,35.083838,-92.445021,0,0,0.616,1059,546,0.619,0.1575,0.0971,0.0055,0.0128,0.0018,0.0531,27262,5492,NULL,NULL,NULL,NULL,NULL,NULL,65904
106795,NA,De Queen,AR,71832,Higher Learning Commission,34.043389,-94.3673,0,0,NA,NA,858,0.521,0.1515,0.2681,0.0047,0.0105,0.0012,0.0431,11803,5020,NULL,NULL,NULL,NULL,NULL,NULL,60240
106810,NA,Paragould,AR,72450,Higher Learning Commission,36.064845,-90.584395,0,0,NA,NA,170,0.7765,0.1941,0.0118,0.0059,0,0,0,23830,5516,NULL,NULL,NULL,NULL,NULL,NULL,66192
106883,NA,Forrest City,AR,72335-2204,Higher Learning Commission,35.041655,-90.767726,0,0,NA,NA,606,0.4884,0.4472,0.0231,0.005,0.0033,0.0033,0.0248,13211,4914,NULL,NULL,NULL,NULL,NULL,NULL,58968
106892,NA,Little Rock,AR,72205,NULL,34.75128,-92.341891,0,0,NA,NA,62,0.1613,0.8065,0.0323,0,0,0,0,NULL,NA,NULL,NULL,NULL,NULL,NULL,NULL,NA
106908,NA,North Little Rock,AR,72117,National Accrediting Commission of Career Arts and Sciences,34.789913,-92.222202,0,0,NA,NA,330,0.603,0.2273,0.097,0.0061,0.0364,0,0.0212,NULL,NA,NULL,NULL,NULL,NULL,NULL,NULL,NA
106980,NA,Hot Springs,AR,71913,Higher Learning Commission,34.512687,-93.119248,0,0,NA,NA,1903,0.7183,0.1161,0.1156,0.0179,0.0163,0,0,14109,5669,NULL,NULL,NULL,NULL,NULL,NULL,68028
106999,NA,Batesville,AR,72503-3350,Higher Learning Commission,35.792923,-91.615852,0,0,NA,NA,698,0.8195,0.0258,0.0802,0.0086,0.0072,0.0014,0.0473,14176,4573,NULL,NULL,NULL,NULL,NULL,NULL,54876
107044,0.5414,Searcy,AR,72149-5615,Higher Learning Commission,35.247386,-91.726143,0,0,0.5414,1183,3262,0.7961,0.0515,0.0389,0.0135,0.0037,0.0009,0.0356,33168,7507,NULL,NULL,NULL,NULL,NULL,NULL,90084
107071,0.7501,Arkadelphia,AR,71999-0001,Higher Learning Commission,34.128155,-93.059703,0,0,0.7501,1084,2205,0.6454,0.1755,0.0653,0.0186,0.0027,0.0086,0.0644,25533,6613,NULL,NULL,NULL,NULL,NULL,NULL,79356
107080,0.683,Conway,AR,72032-3080,Higher Learning Commission,35.101565,-92.443256,0,0,0.683,1286,1103,0.689,0.0752,0.0943,0.039,0.0054,0.0009,0.0508,55218,7615,NULL,NULL,NULL,NULL,NULL,NULL,91380
107099,NA,Hot Springs,AR,71901,National Accrediting Commission of Career Arts and Sciences,34.496057,-93.037277,0,0,NA,NA,85,0.8,0.1412,0.0471,0,0,0,0.0118,NULL,NA,NULL,NULL,NULL,NULL,NULL,NULL,NA
107123,NA,Pine Bluff,AR,71603,Accrediting Bureau of Health Education Schools,34.187831,-92.018045,0,0,NA,NA,66,0.6364,0.303,0.0606,0,0,0,0,NULL,7074,NULL,NULL,NULL,NULL,NULL,NULL,84888
107141,0.5287,Siloam Springs,AR,72761,Higher Learning Commission,36.189812,-94.560283,0,0,0.5287,1231,1381,0.7147,0.0152,0.076,0.0181,0.0159,0.0007,0.0608,41492,7137,NULL,NULL,NULL,NULL,NULL,NULL,85644
107220,NA,Springdale,AR,72764-7128,National Accrediting Commission of Career Arts and Sciences,36.167605,-94.12947,0,0,NA,NA,196,0.6531,0.0969,0.1888,0,0.0561,0,0.0051,NULL,NA,NULL,NULL,NULL,NULL,NULL,NULL,NA
107293,NA,Fort Smith,AR,72901,National Accrediting Commission of Career Arts and Sciences,35.38097,-94.41616,0,0,NA,NA,53,0.6792,0.0755,0.1321,0,0.0755,0,0.0377,NULL,NA,NULL,NULL,NULL,NULL,NULL,NULL,NA
107318,NA,West Memphis,AR,72301-3829,Higher Learning Commission,35.145736,-90.22285,0,0,NA,NA,525,0.341,0.541,0.0514,0.0057,0.0038,0.0038,0.0324,15083,4123,NULL,NULL,NULL,NULL,NULL,NULL,49476
107327,NA,Blytheville,AR,72316-1109,Higher Learning Commission,35.898597,-89.921005,0,0,NA,NA,786,0.6005,0.3295,0.0509,0.0115,0.0038,0,0.0038,10511,4999,NULL,NULL,NULL,NULL,NULL,NULL,59988
107442,NA,North Little Rock,AR,72114-4973,Accrediting Commission of Career Schools and Colleges,34.760085,-92.254171,0,0,NA,NA,33,0,0.9697,0.0303,0,0,0,0,NULL,NA,NULL,NULL,NULL,NULL,NULL,NULL,NA
107460,NA,Harrison,AR,72601-5508,Higher Learning Commission,36.219909,-93.08844,0,0,NA,NA,1161,0.82,0.0241,0.0801,0.0069,0.0009,0.0026,0.0439,15648,5367,NULL,NULL,NULL,NULL,NULL,NULL,64404
107488,NA,Springdale,AR,72764,Council on Occupational Education,36.178032,-94.115346,0,0,NA,NA,155,0.471,0.0323,0.3613,0.0387,0.0129,0.0194,0.0516,16765,NA,NULL,NULL,NULL,NULL,NULL,NULL,NA
107512,0.7375,Arkadelphia,AR,71998-0001,Higher Learning Commission,34.126093,-93.052471,0,0,0.7375,NA,1572,0.7964,0.0776,0.0573,0.0115,0.0025,0,0.0337,41491,6545,NULL,NULL,NULL,NULL,NULL,NULL,78540
107521,NA,Malvern,AR,72104-0816,Higher Learning Commission,34.378745,-92.821416,0,0,NA,NA,424,0.6321,0.2406,0.0566,0.0142,0.0024,0,0.0542,10098,4732,NULL,NULL,NULL,NULL,NULL,NULL,56784
107549,NA,Melbourne,AR,72556-0010,Higher Learning Commission,36.053031,-91.896355,0,0,NA,NA,627,0.9522,0.0159,0.0159,0.008,0.008,0,0,11266,4824,NULL,NULL,NULL,NULL,NULL,NULL,57888
107558,0.5537,Clarksville,AR,72830,Higher Learning Commission,35.476278,-93.467221,0,0,0.5537,1061,775,0.4129,0.0542,0.1303,0.009,0.009,0.0026,0.0323,34732,6875,NULL,NULL,NULL,NULL,NULL,NULL,82500
107585,1,Morrilton,AR,72110,Higher Learning Commission,35.172136,-92.728507,0,0,1,NA,1586,0.7213,0.0845,0.1103,0.0057,0.0019,0,0.0479,13628,5311,NULL,NULL,NULL,NULL,NULL,NULL,63732
107600,NA,Little Rock,AR,72202-3799,Higher Learning Commission,34.737131,-92.283015,0,0,NA,NA,709,0.0028,0.9041,0.0141,0.0014,0,0.0113,0.0113,25960,5891,NULL,NULL,NULL,NULL,NULL,NULL,70692
107619,NA,Helena,AR,72342-0785,Higher Learning Commission,34.546155,-90.616884,0,0,NA,NA,611,0.3977,0.5532,0.0295,0.0065,0.0016,0,0.0115,10574,4947,NULL,NULL,NULL,NULL,NULL,NULL,59364
107637,NA,Pine Bluff,AR,71603,Higher Learning Commission,34.210309,-92.025936,0,0,NA,NA,808,0.1943,0.5668,0.2203,0.005,0.0025,0,0.0099,13136,4921,NULL,NULL,NULL,NULL,NULL,NULL,59052
107655,NA,El Dorado,AR,71730-4009,Middle States Commission on Secondary Education,33.216032,-92.664101,0,0,NA,NA,37,0.5676,0.3784,0.027,0,0,0,0.027,NULL,NA,NULL,NULL,NULL,NULL,NULL,NULL,NA
107664,NA,North Little Rock,AR,72118-3347,Higher Learning Commission,34.782783,-92.299184,0,0,NA,NA,4110,0.4187,0.39,0.0669,0.0153,0.0036,0.0017,0.047,18439,5027,NULL,NULL,NULL,NULL,NULL,NULL,60324
107725,NA,Hope,AR,71801,Higher Learning Commission,33.641665,-93.596762,0,0,NA,NA,760,0.5434,0.3276,0.1,0.0039,0.0013,0,0.0145,12807,4836,NULL,NULL,NULL,NULL,NULL,NULL,58032
107743,NA,Mena,AR,71953,Higher Learning Commission,34.591449,-94.219799,0,0,NA,NA,529,0.7637,0.0284,0.0964,0.0076,0.0227,0,0.017,10811,4494,NULL,NULL,NULL,NULL,NULL,NULL,53928
107789,NA,Fayetteville,AR,72703,National Accrediting Commission of Career Arts and Sciences,36.126373,-94.153892,0,0,NA,NA,118,0.8051,0.0339,0.1271,0,0.0339,0,0,NULL,NA,NULL,NULL,NULL,NULL,NULL,NULL,NA
107831,NA,Searcy,AR,72143,National Accrediting Commission of Career Arts and Sciences,35.239148,-91.735135,0,0,NA,NA,84,0.8571,0.0833,0.0357,0,0.0119,0,0.0119,NULL,NA,NULL,NULL,NULL,NULL,NULL,NULL,NA
107840,NA,N Little Rock,AR,72114,Transnational Association of Christian Colleges and Schools,34.75933,-92.261331,0,0,NA,NA,245,0.2041,0.7673,0.0122,0,0.0041,0,0.0041,19840,4145,NULL,NULL,NULL,NULL,NULL,NULL,49740
107877,0.641,Walnut Ridge,AR,72476,Higher Learning Commission,36.125676,-90.940277,0,0,0.641,1100,593,0.7538,0.1046,0.0337,0,0.0051,0.0017,0.0253,31252,5416,NULL,NULL,NULL,NULL,NULL,NULL,64992
107974,NA,El Dorado,AR,71731-7010,Higher Learning Commission,33.209446,-92.666087,0,0,NA,NA,889,0.5096,0.3768,0.0562,0.0045,0.0022,0.0011,0.027,11982,5156,NULL,NULL,NULL,NULL,NULL,NULL,61872
107983,0.626,Magnolia,AR,71753,Higher Learning Commission,33.291618,-93.235922,0,0,0.626,1094,2795,0.6097,0.2114,0.0504,0.0072,0.0029,0.0004,0.0512,23732,7043,NULL,NULL,NULL,NULL,NULL,NULL,84516
107992,NA,Camden,AR,71701-1906,Higher Learning Commission,33.628367,-92.721629,0,0,NA,NA,725,0.4703,0.4221,0.0441,0,0.0014,0.0014,0.0552,17911,4549,NULL,NULL,NULL,NULL,NULL,NULL,54588
108065,NA,Little Rock,AR,72202-5452,National Accrediting Commission of Career Arts and Sciences,34.735685,-92.289597,0,0,NA,NA,15,0,1,0,0,0,0,0,NULL,NA,NULL,NULL,NULL,NULL,NULL,NULL,NA
108092,NA,Fort Smith,AR,72913-3649,Higher Learning Commission,35.384184,-94.373729,0,0,NA,NA,4188,0.6086,0.0375,0.1538,0.0549,0.0236,0.0012,0.1053,18174,7009,NULL,NULL,NULL,NULL,NULL,NULL,84108
108232,NA,San Francisco,CA,94105,Western Association of Schools and Colleges Senior Colleges and University Commission,37.787943,-122.400578,0,0,NA,NA,5294,0.2055,0.095,0.146,0.0518,0.0045,0.0032,0.0442,41301,9482,NULL,NULL,NULL,NULL,NULL,NULL,113784
108269,NA,Oakland,CA,94612,Accrediting Commission for Acupuncture and Oriental Medicine,37.805972,-122.269839,0,0,NA,NA,NULL,NULL,NULL,NULL,NULL,NULL,NULL,NULL,NULL,NA,NULL,NULL,NULL,NULL,NULL,NULL,NA
108667,NA,Alameda,CA,94501,Western Association of Schools and Colleges Accrediting Commission for Community and Junior Colleges,37.781017,-122.279303,0,0,NA,NA,3629,0.1769,0.183,0.2508,0.2521,0.0008,0.0061,0.0703,14602,9524,NULL,NULL,NULL,NULL,NULL,NULL,114288
108807,NA,Santa Maria,CA,93454-6399,Western Association of Schools and Colleges Accrediting Commission for Community and Junior Colleges,34.943716,-120.421144,0,0,NA,NA,7389,0.2137,0.0202,0.6707,0.0313,0.0035,0.0054,0.0332,11135,9070,NULL,NULL,NULL,NULL,NULL,NULL,108840
108852,0.9027,Los Angeles,CA,90028,Middle States Commission on Higher Education,34.095378,-118.343701,0,0,0.9027,NA,217,0.4101,0.0922,0.1244,0.0092,0.0092,0,0.0645,47804,6981,NULL,NULL,NULL,NULL,NULL,NULL,83772
108861,NA,Berkeley,CA,94704-3029,Commission on Accrediting of the Association of Theological Schools,37.865252,-122.256149,0,0,NA,NA,NULL,NULL,NULL,NULL,NULL,NULL,NULL,NULL,NULL,NA,NULL,NULL,NULL,NULL,NULL,NULL,NA
108870,NA,Los Angeles,CA,90027-1625,Western Association of Schools and Colleges Senior Colleges and University Commission,34.10767,-118.310018,0,0,NA,NA,NULL,NULL,NULL,NULL,NULL,NULL,NULL,NULL,NULL,9029,NULL,NULL,NULL,NULL,NULL,NULL,108348
108977,NA,West Covina,CA,91790,National Accrediting Commission of Career Arts and Sciences,34.069367,-117.936959,0,0,NA,NA,185,0.1243,0.0162,0.7568,0.0757,0.0108,0,0.0054,NULL,NA,NULL,NULL,NULL,NULL,NULL,NULL,NA
109040,NA,Los Angeles,CA,90004,Accrediting Bureau of Health Education Schools,34.079323,-118.292481,0,0,NA,NA,1902,0.072,0.1335,0.6146,0.123,0.0053,0.01,0.0405,NULL,6890,NULL,NULL,NULL,NULL,NULL,NULL,82680
109086,NA,San Francisco,CA,94102,NULL,37.786923,-122.410265,0,0,NA,NA,1,1,0,0,0,0,0,0,NULL,9343,NULL,NULL,NULL,NULL,NULL,NULL,112116
109208,NA,Sacramento,CA,95841-4286,Western Association of Schools and Colleges Accrediting Commission for Community and Junior Colleges,38.65085,-121.349672,0,0,NA,NA,22837,0.3952,0.0701,0.2804,0.121,0.0057,0.0105,0.0584,13465,9607,NULL,NULL,NULL,NULL,NULL,NULL,115284
109350,NA,Lancaster,CA,93536-5426,Western Association of Schools and Colleges Accrediting Commission for Community and Junior Colleges,34.676207,-118.186166,0,0,NA,NA,9670,0.164,0.1223,0.6126,0.0386,0.0023,0.0018,0.0411,11709,9114,NULL,NULL,NULL,NULL,NULL,NULL,109368
109651,0.7556,Pasadena,CA,91103,Western Association of Schools and Colleges Senior Colleges and University Commission,34.169031,-118.185102,0,0,0.7556,NA,2026,0.116,0.0143,0.0908,0.3174,0.0005,0.003,0.0321,68087,7942,NULL,NULL,NULL,NULL,NULL,NULL,95304
109721,NA,Los Angeles,CA,90017-1604,Accrediting Commission of Career Schools and Colleges,34.056102,-118.272364,0,0,NA,NA,180,0.1778,0.3056,0.4444,0.0167,0.0111,0,0.0222,NULL,NA,NULL,NULL,NULL,NULL,NULL,NULL,NA
109730,NA,San Diego,CA,92108-1630,Accrediting Commission of Career Schools and Colleges,32.773178,-117.135196,0,0,NA,NA,43,0.3488,0.1163,0.4651,0,0,0.0465,0,NULL,NA,NULL,NULL,NULL,NULL,NULL,NULL,NA
109785,0.941,Azusa,CA,91702-7000,Western Association of Schools and Colleges Senior Colleges and University Commission,34.130047,-117.888375,0,0,0.941,1117,3937,0.3023,0.0625,0.3719,0.1229,0.0033,0.0079,0.0572,54720,8957,NULL,NULL,NULL,NULL,NULL,NULL,107484
109819,NA,Bakersfield,CA,93305-1299,Western Association of Schools and Colleges Accrediting Commission for Community and Junior Colleges,35.40911,-118.973753,0,0,NA,NA,16900,0.2002,0.0509,0.654,0.0408,0.003,0.0012,0.0337,13485,10874,NULL,NULL,NULL,NULL,NULL,NULL,130488
109907,NA,Barstow,CA,92311,Western Association of Schools and Colleges Accrediting Commission for Community and Junior Colleges,34.870285,-117.023412,0,0,NA,NA,2071,0.2376,0.1685,0.465,0.0285,0.0087,0.0145,0.0608,17676,9774,NULL,NULL,NULL,NULL,NULL,NULL,117288
109934,NA,Chula Vista,CA,91911,National Accrediting Commission of Career Arts and Sciences,32.614773,-117.083738,0,0,NA,NA,406,0.0911,0.1502,0.5936,0.0665,0.0049,0.0099,0.0714,NULL,NA,NULL,NULL,NULL,NULL,NULL,NULL,NA
110060,NA,Anaheim,CA,92801,Transnational Association of Christian Colleges and Schools,33.842295,-117.941323,0,0,NA,NA,264,0.0568,0.1212,0.2008,0.1174,0.0114,0,0.0303,19754,2482,NULL,NULL,NULL,NULL,NULL,NULL,29784
110097,0.6077,La Mirada,CA,90639-0001,Western Association of Schools and Colleges Senior Colleges and University Commission,33.906203,-118.014374,0,0,0.6077,1228,3592,0.4365,0.0317,0.206,0.1526,0.0025,0.0056,0.0704,57403,9807,NULL,NULL,NULL,NULL,NULL,NULL,117684
110194,NA,Anaheim,CA,92805,Accrediting Commission of Career Schools and Colleges,33.819032,-117.905774,0,0,NA,NA,241,0.1743,0.0581,0.639,0.1286,0,0,0,NULL,NA,NULL,NULL,NULL,NULL,NULL,NULL,NA
110219,NA,Tempe,AZ,85281,Accrediting Commission of Career Schools and Colleges,33.437779,-111.944197,0,0,NA,NA,1361,0.4328,0.1969,0.0771,0.0132,0.0191,0.0059,0.0808,23267,5308,NULL,NULL,NULL,NULL,NULL,NULL,63696
110246,NA,Oroville,CA,95965-8399,Western Association of Schools and Colleges Accrediting Commission for Community and Junior Colleges,39.649782,-121.644831,0,0,NA,NA,8579,0.5051,0.0252,0.3118,0.0562,0.0108,0.0035,0.0629,14581,10704,NULL,NULL,NULL,NULL,NULL,NULL,128448
110316,NA,San Francisco,CA,94103,Western Association of Schools and Colleges Senior Colleges and University Commission,37.774924,-122.416102,0,0,NA,NA,84,0.5238,0.1071,0.131,0.0476,0,0,0.1071,NULL,8677,NULL,NULL,NULL,NULL,NULL,NULL,104124
110334,NA,Aptos,CA,95003,Western Association of Schools and Colleges Accrediting Commission for Community and Junior Colleges,36.989448,-121.924797,0,0,NA,NA,8035,0.4021,0.0107,0.4864,0.0314,0.0014,0.0027,0.0512,20716,8776,NULL,NULL,NULL,NULL,NULL,NULL,105312
110361,0.6373,Riverside,CA,92504-3297,Western Association of Schools and Colleges Senior Colleges and University Commission,33.929321,-117.425619,0,0,0.6373,NA,8234,0.3515,0.0664,0.3918,0.0634,0.0055,0.0089,0.0576,46274,10151,NULL,NULL,NULL,NULL,NULL,NULL,121812
110370,0.7763,San Francisco,CA,94107-2247,Western Association of Schools and Colleges Senior Colleges and University Commission,37.767485,-122.399451,0,0,0.7763,NA,1239,0.1776,0.0404,0.1461,0.1525,0,0.0016,0.0686,68296,8739,NULL,NULL,NULL,NULL,NULL,NULL,104868
110398,NA,San Francisco,CA,94102-4978,Western Association of Schools and Colleges Senior Colleges and University Commission,37.781137,-122.4157,0,0,NA,NA,NULL,NULL,NULL,NULL,NULL,NULL,NULL,NULL,NULL,16046,NULL,NULL,NULL,NULL,NULL,NULL,192552
110404,0.0392,Pasadena,CA,91125,Western Association of Schools and Colleges Senior Colleges and University Commission,34.137349,-118.125878,0,0,0.0392,NA,987,0.227,0.0253,0.2229,0.3455,0.001,0.001,0.0942,77718,20924,NULL,NULL,NULL,NULL,NULL,NULL,251088
110413,0.8194,Thousand Oaks,CA,91360-2787,Western Association of Schools and Colleges Senior Colleges and University Commission,34.224566,-118.878924,0,0,0.8194,1200,2588,0.3949,0.039,0.3918,0.0537,0.0023,0.005,0.0622,55039,10375,NULL,NULL,NULL,NULL,NULL,NULL,124500
110422,0.33,San Luis Obispo,CA,93407,Western Association of Schools and Colleges Senior Colleges and University Commission,35.299513,-120.657311,0,0,0.33,NA,21090,0.5302,0.0069,0.1944,0.137,0.0012,0.0024,0.0757,28843,10582,NULL,NULL,NULL,NULL,NULL,NULL,126984
110468,1,San Diego,CA,92131,Western Association of Schools and Colleges Senior Colleges and University Commission,32.897056,-117.094398,0,0,1,NA,227,0.2203,0.0396,0.2731,0.0529,0,0.0044,0.0308,NULL,10251,NULL,NULL,NULL,NULL,NULL,NULL,123012
110486,0.8521,Bakersfield,CA,93311-1099,Western Association of Schools and Colleges Senior Colleges and University Commission,35.350005,-119.104711,0,0,0.8521,NA,8870,0.1393,0.0416,0.6362,0.0661,0.003,0.0021,0.0218,18172,9468,NULL,NULL,NULL,NULL,NULL,NULL,113616
110495,0.9476,Turlock,CA,95382-0299,Western Association of Schools and Colleges Senior Colleges and University Commission,37.52577,-120.852511,0,0,0.9476,NA,9161,0.1859,0.0205,0.5884,0.093,0.0019,0.0065,0.0259,17005,9639,NULL,NULL,NULL,NULL,NULL,NULL,115668
110510,0.9097,San Bernardino,CA,92407-2393,Western Association of Schools and Colleges Senior Colleges and University Commission,34.182622,-117.323801,0,0,0.9097,NA,16595,0.1083,0.0478,0.6897,0.0527,0.0014,0.0014,0.0209,13365,9973,NULL,NULL,NULL,NULL,NULL,NULL,119676
110529,0.6062,Pomona,CA,91768,Western Association of Schools and Colleges Senior Colleges and University Commission,34.057912,-117.821476,0,0,0.6062,NA,26802,0.1411,0.0293,0.5032,0.2211,0.0011,0.002,0.0352,22108,10556,NULL,NULL,NULL,NULL,NULL,NULL,126672
110538,0.8547,Chico,CA,95929-0150,Western Association of Schools and Colleges Senior Colleges and University Commission,39.729712,-121.844859,0,0,0.8547,NA,14343,0.4293,0.0277,0.3655,0.0572,0.0043,0.0025,0.0533,22469,9593,NULL,NULL,NULL,NULL,NULL,NULL,115116
110547,0.8959,Carson,CA,90747-0005,Western Association of Schools and Colleges Senior Colleges and University Commission,33.864766,-118.255917,0,0,0.8959,NA,15214,0.0515,0.1097,0.6744,0.0686,0.0013,0.0025,0.02,14579,9821,NULL,NULL,NULL,NULL,NULL,NULL,117852
110556,0.9728,Fresno,CA,93740,Western Association of Schools and Colleges Senior Colleges and University Commission,36.811154,-119.744569,0,0,0.9728,NA,21826,0.167,0.029,0.5794,0.1238,0.0032,0.0015,0.0251,17014,9546,NULL,NULL,NULL,NULL,NULL,NULL,114552
110565,0.5943,Fullerton,CA,92831-3599,Western Association of Schools and Colleges Senior Colleges and University Commission,33.881506,-117.885446,0,0,0.5943,NA,35502,0.1633,0.0197,0.4895,0.2211,0.0007,0.0019,0.0379,14182,10353,NULL,NULL,NULL,NULL,NULL,NULL,124236
110574,0.8236,Hayward,CA,94542,Western Association of Schools and Colleges Senior Colleges and University Commission,37.657694,-122.054135,0,0,0.8236,NA,12047,0.1489,0.0929,0.3834,0.2286,0.0012,0.0114,0.0492,22134,10355,NULL,NULL,NULL,NULL,NULL,NULL,124260
110583,0.4685,Long Beach,CA,90840-0115,Western Association of Schools and Colleges Senior Colleges and University Commission,33.782818,-118.11204,0,0,0.4685,NA,33765,0.1591,0.0368,0.4683,0.2135,0.0009,0.0024,0.0435,18699,10297,NULL,NULL,NULL,NULL,NULL,NULL,123564
110592,0.9054,Los Angeles,CA,90032-8506,Western Association of Schools and Colleges Senior Colleges and University Commission,34.066927,-118.168965,0,0,0.9054,NA,23506,0.0439,0.0373,0.7199,0.1117,0.0011,0.0009,0.0141,13712,10102,NULL,NULL,NULL,NULL,NULL,NULL,121224
110608,0.881,Northridge,CA,91330,Western Association of Schools and Colleges Senior Colleges and University Commission,34.240126,-118.529319,0,0,0.881,NA,34436,0.2018,0.0468,0.5385,0.0877,0.0008,0.0015,0.0298,19641,10127,NULL,NULL,NULL,NULL,NULL,NULL,121524
110617,0.9368,Sacramento,CA,95819-2694,Western Association of Schools and Colleges Senior Colleges and University Commission,38.559415,-121.423549,0,0,0.9368,NA,29370,0.238,0.0636,0.3642,0.1949,0.0023,0.0089,0.0579,17561,9713,NULL,NULL,NULL,NULL,NULL,NULL,116556
110635,0.1444,Berkeley,CA,94720,Western Association of Schools and Colleges Senior Colleges and University Commission,37.871918,-122.260463,0,0,0.1444,NA,31811,0.2072,0.0213,0.198,0.3491,0.0011,0.0015,0.0585,37510,18770,NULL,NULL,NULL,NULL,NULL,NULL,225240
110644,0.4875,Davis,CA,95616-8678,Western Association of Schools and Colleges Senior Colleges and University Commission,38.539667,-121.749567,0,0,0.4875,NA,31637,0.2136,0.0194,0.2365,0.2963,0.0007,0.0028,0.0591,33396,15968,NULL,NULL,NULL,NULL,NULL,NULL,191616
110653,0.2882,Irvine,CA,92697,Western Association of Schools and Colleges Senior Colleges and University Commission,33.648434,-117.841248,0,0,0.2882,NA,29438,0.133,0.021,0.2582,0.3698,0.0009,0.0019,0.0504,30173,16688,NULL,NULL,NULL,NULL,NULL,NULL,200256
110662,0.1077,Los Angeles,CA,90095-1405,Western Association of Schools and Colleges Senior Colleges and University Commission,34.07178,-118.442179,0,0,0.1077,NA,32122,0.2623,0.032,0.2169,0.2913,0.0016,0.0018,0.0671,29153,19498,NULL,NULL,NULL,NULL,NULL,NULL,233976
110671,0.6538,Riverside,CA,92521,Western Association of Schools and Colleges Senior Colleges and University Commission,33.97246,-117.32741,0,0,0.6538,NA,22817,0.1122,0.0331,0.4069,0.3552,0.001,0.0025,0.0456,30569,14807,NULL,NULL,NULL,NULL,NULL,NULL,177684
110680,0.342,La Jolla,CA,92093,Western Association of Schools and Colleges Senior Colleges and University Commission,32.877749,-117.235866,0,0,0.342,NA,33339,0.1897,0.0163,0.2196,0.3355,0.0009,0.0015,0.0561,32719,16913,NULL,NULL,NULL,NULL,NULL,NULL,202956
110699,NA,San Francisco,CA,94143-0244,Western Association of Schools and Colleges Senior Colleges and University Commission,37.763737,-122.458489,0,0,NA,NA,NULL,NULL,NULL,NULL,NULL,NULL,NULL,NULL,NULL,13591,NULL,NULL,NULL,NULL,NULL,NULL,163092
110705,0.2918,Santa Barbara,CA,93106,Western Association of Schools and Colleges Senior Colleges and University Commission,34.416297,-119.846426,0,0,0.2918,NA,23081,0.3186,0.0177,0.2541,0.1837,0.001,0.0011,0.0872,34738,17654,NULL,NULL,NULL,NULL,NULL,NULL,211848
110714,0.5864,Santa Cruz,CA,95064-1011,Western Association of Schools and Colleges Senior Colleges and University Commission,36.995584,-122.058801,0,0,0.5864,NA,17864,0.3145,0.0194,0.2786,0.2283,0.001,0.0015,0.0814,37040,15513,NULL,NULL,NULL,NULL,NULL,NULL,186156
110778,NA,Palo Alto,CA,94303,Western Association of Schools and Colleges Senior Colleges and University Commission,37.430325,-122.10866,0,0,NA,NA,8,0.5,0,0,0,0,0,0.5,NULL,2627,NULL,NULL,NULL,NULL,NULL,NULL,31524
110875,NA,Modesto,CA,95354,National Accrediting Commission of Career Arts and Sciences,37.645217,-120.99689,0,0,NA,NA,63,0.254,0,0.5238,0.0317,0.0476,0.1111,0.0317,NULL,NA,NULL,NULL,NULL,NULL,NULL,NULL,NA
110918,1,Fresno,CA,93727,NULL,36.749366,-119.711123,0,0,1,NA,14,0.2857,0.1429,0.2857,0.2143,0,0,0,NULL,NA,NULL,NULL,NULL,NULL,NULL,NULL,NA
111045,NA,Garden Grove,CA,92840-1340,Transnational Association of Christian Colleges and Schools,33.777392,-117.939412,0,0,NA,NA,22,0,0.1818,0.0455,0.1364,0,0,0,NULL,1317,NULL,NULL,NULL,NULL,NULL,NULL,15804
111054,NA,La Mesa,CA,91942-5055,National Accrediting Commission of Career Arts and Sciences,32.765221,-117.024261,0,0,NA,NA,94,0.2872,0.0957,0.4149,0.0532,0,0.0213,0.1277,NULL,NA,NULL,NULL,NULL,NULL,NULL,NULL,NA
111081,0.2898,Valencia,CA,91355-2397,Western Association of Schools and Colleges Senior Colleges and University Commission,34.39327,-118.566837,0,0,0.2898,NA,959,0.3754,0.0386,0.1376,0.0918,0.0042,0.0021,0.0636,74931,9555,NULL,NULL,NULL,NULL,NULL,NULL,114660
111188,0.8209,Vallejo,CA,94590-8181,Western Association of Schools and Colleges Senior Colleges and University Commission,38.069061,-122.231551,0,0,0.8209,NA,880,0.4614,0.0284,0.2216,0.1114,0.0057,0.0136,0.1091,24845,10310,NULL,NULL,NULL,NULL,NULL,NULL,123720
111391,NA,San Diego,CA,92101-3046,Western Association of Schools and Colleges Senior Colleges and University Commission,32.722192,-117.162416,0,0,NA,NA,NULL,NULL,NULL,NULL,NULL,NULL,NULL,NULL,NULL,11568,NULL,NULL,NULL,NULL,NULL,NULL,138816
111434,NA,Redwood City,CA,94061-1099,Western Association of Schools and Colleges Accrediting Commission for Community and Junior Colleges,37.44877,-122.265398,0,0,NA,NA,3859,0.2433,0.0215,0.4006,0.1879,0.001,0.0158,0.0492,9715,11660,NULL,NULL,NULL,NULL,NULL,NULL,139920
111461,NA,Santa Clarita,CA,91355-1899,Western Association of Schools and Colleges Accrediting Commission for Community and Junior Colleges,34.403993,-118.568698,0,0,NA,NA,13371,0.2728,0.0495,0.5188,0.0973,0.0015,0.0025,0.0349,11273,11688,NULL,NULL,NULL,NULL,NULL,NULL,140256
111513,NA,Garden Grove,CA,92845,National Accrediting Commission of Career Arts and Sciences,33.781018,-118.031697,0,0,NA,NA,194,0.3196,0.0309,0.4639,0.134,0.0258,0.0052,0.0052,NULL,NA,NULL,NULL,NULL,NULL,NULL,NULL,NA
111638,1,Sherman Oaks,CA,91403,Accrediting Bureau of Health Education Schools,34.155096,-118.466548,0,0,1,NA,246,0.2724,0.0203,0.5325,0.126,0.0122,0.0081,0.0244,NULL,7748,NULL,NULL,NULL,NULL,NULL,NULL,92976
111708,NA,San Diego,CA,92102,Council on Occupational Education,32.711302,-117.105328,0,0,NA,NA,198,0.1566,0.0758,0.4192,0.303,0.0051,0.0202,0.0152,NULL,NA,NULL,NULL,NULL,NULL,NULL,NULL,NA
111717,NA,San Jose,CA,95110,Council on Occupational Education,37.322723,-121.88698,0,0,NA,NA,176,0.0568,0.0511,0.75,0.0795,0,0.0114,0.0511,NULL,NA,NULL,NULL,NULL,NULL,NULL,NULL,NA
111726,NA,El Centro,CA,92243,Council on Occupational Education,32.790908,-115.549079,0,0,NA,NA,159,0.0063,0,0.9811,0,0,0.0063,0.0063,NULL,NA,NULL,NULL,NULL,NULL,NULL,NULL,NA
111744,NA,Colton,CA,92324,Council on Occupational Education,34.077381,-117.353488,0,0,NA,NA,135,0.1333,0.1037,0.7111,0.0148,0.0074,0,0.0296,NULL,NA,NULL,NULL,NULL,NULL,NULL,NULL,NA
111762,NA,Watsonville,CA,95076,Council on Occupational Education,36.931833,-121.767991,0,0,NA,NA,90,0.0222,0.0333,0.9444,0,0,0,0,NULL,NA,NULL,NULL,NULL,NULL,NULL,NULL,NA
111799,NA,Salinas,CA,93906,Council on Occupational Education,36.707333,-121.65236,0,0,NA,NA,156,0,0,1,0,0,0,0,NULL,NA,NULL,NULL,NULL,NULL,NULL,NULL,NA
111887,NA,Norwalk,CA,90650-6298,Western Association of Schools and Colleges Accrediting Commission for Community and Junior Colleges,33.886874,-118.097337,0,0,NA,NA,17437,0.0931,0.0635,0.7012,0.0772,0.0031,0.0034,0.0221,13286,11073,NULL,NULL,NULL,NULL,NULL,NULL,132876
111896,NA,Ridgecrest,CA,93555-9571,Western Association of Schools and Colleges Accrediting Commission for Community and Junior Colleges,35.567525,-117.66767,0,0,NA,NA,3706,0.3718,0.0831,0.412,0.0413,0.0232,0.0062,0.0459,16281,11032,NULL,NULL,NULL,NULL,NULL,NULL,132384
111920,NA,Hayward,CA,94545,Western Association of Schools and Colleges Accrediting Commission for Community and Junior Colleges,37.642458,-122.105636,0,0,NA,NA,10067,0.1485,0.0895,0.4155,0.241,0.0016,0.0144,0.0673,13354,11197,NULL,NULL,NULL,NULL,NULL,NULL,134364
111939,NA,Rancho Cucamonga,CA,91737-3002,Western Association of Schools and Colleges Accrediting Commission for Community and Junior Colleges,34.147663,-117.573932,0,0,NA,NA,15267,0.1512,0.073,0.6439,0.0722,0.0017,0.0022,0.0303,18583,10244,NULL,NULL,NULL,NULL,NULL,NULL,122928
111948,0.6037,Orange,CA,92866,Western Association of Schools and Colleges Senior Colleges and University Commission,33.79302,-117.852518,0,0,0.6037,1318,7469,0.5022,0.0216,0.1762,0.1589,0.0013,0.0033,0.0837,71065,12582,NULL,NULL,NULL,NULL,NULL,NULL,150984
111966,0.6329,Los Angeles,CA,90059,Western Association of Schools and Colleges Senior Colleges and University Commission,33.925658,-118.242791,0,0,0.6329,NA,255,0.0471,0.4275,0.3569,0.0941,0.0078,0.0039,0.0196,36763,9170,NULL,NULL,NULL,NULL,NULL,NULL,110040
112075,0.8138,Irvine,CA,92612-3203,Western Association of Schools and Colleges Senior Colleges and University Commission,33.653665,-117.812305,0,0,0.8138,1174,1580,0.4595,0.0481,0.2639,0.1025,0.0019,0.0057,0.0734,53068,7385,NULL,NULL,NULL,NULL,NULL,NULL,88620
112084,0.527,Spring Valley,CA,91977,Western Association of Schools and Colleges Senior Colleges and University Commission,32.750035,-116.993906,0,0,0.527,NA,438,0.3744,0.0959,0.3082,0.032,0.0114,0.0114,0.0525,47504,6874,NULL,NULL,NULL,NULL,NULL,NULL,82488
112127,NA,Berkeley,CA,94709-1211,Commission on Accrediting of the Association of Theological Schools,37.876184,-122.261122,0,0,NA,NA,NULL,NULL,NULL,NULL,NULL,NULL,NULL,NULL,NULL,9167,NULL,NULL,NULL,NULL,NULL,NULL,110004
112172,NA,Glendora,CA,91741-1899,Western Association of Schools and Colleges Accrediting Commission for Community and Junior Colleges,34.13537,-117.886469,0,0,NA,NA,8260,0.1504,0.0332,0.6603,0.0843,0.0025,0.0019,0.0317,13090,8894,NULL,NULL,NULL,NULL,NULL,NULL,106728
112181,NA,Citrus Heights,CA,95610-1410,National Accrediting Commission of Career Arts and Sciences,38.712951,-121.289529,0,0,NA,NA,101,0.6535,0.0594,0.1683,0.0396,0.0198,0.0099,0.0297,NULL,NA,NULL,NULL,NULL,NULL,NULL,NULL,NA
112190,NA,San Francisco,CA,94112-1898,Western Association of Schools and Colleges Accrediting Commission for Community and Junior Colleges,37.725953,-122.451155,0,0,NA,NA,16219,0.208,0.0745,0.271,0.3303,0.0024,0.0073,0.0525,14677,10179,NULL,NULL,NULL,NULL,NULL,NULL,122148
112251,NA,Claremont,CA,91711-6160,Western Association of Schools and Colleges Senior Colleges and University Commission,34.103585,-117.713703,0,0,NA,NA,NULL,NULL,NULL,NULL,NULL,NULL,NULL,NULL,NULL,13628,NULL,NULL,NULL,NULL,NULL,NULL,163536
112260,0.1124,Claremont,CA,91711-6400,Western Association of Schools and Colleges Senior Colleges and University Commission,34.102154,-117.711188,0,0,0.1124,1487,1414,0.3685,0.0516,0.1563,0.145,0.0007,0.0028,0.0672,66496,14789,NULL,NULL,NULL,NULL,NULL,NULL,177468
112288,NA,Visalia,CA,93277,Council on Occupational Education,36.27164,-119.312151,0,0,NA,NA,430,0.1372,0.0163,0.793,0.007,0.0163,0.0093,0.0186,NULL,NA,NULL,NULL,NULL,NULL,NULL,NULL,NA
112367,NA,Clovis,CA,93611,Council on Occupational Education,36.834459,-119.690369,0,0,NA,NA,340,0.1441,0.0706,0.5029,0.1882,0.0088,0.0294,0.0412,NULL,NA,NULL,NULL,NULL,NULL,NULL,NULL,NA
112385,NA,Fountain Valley,CA,92708-2597,Western Association of Schools and Colleges Accrediting Commission for Community and Junior Colleges,33.715634,-117.929143,0,0,NA,NA,5719,0.291,0.0754,0.3072,0.2177,0.0061,0.0045,0.042,14743,11482,NULL,NULL,NULL,NULL,NULL,NULL,137784
112394,0.5065,San Jose,CA,95134,Western Association of Schools and Colleges Senior Colleges and University Commission,37.414049,-121.94087,0,0,0.5065,NA,420,0.2786,0.0881,0.2333,0.2,0.0024,0.0048,0.081,35103,7739,NULL,NULL,NULL,NULL,NULL,NULL,92868
112455,NA,Anaheim,CA,92801,National Accrediting Commission of Career Arts and Sciences,33.841141,-117.943108,0,0,NA,NA,132,0.1136,0.1061,0.6742,0.0606,0,0.0076,0,NULL,NA,NULL,NULL,NULL,NULL,NULL,NULL,NA
112525,NA,Pomona,CA,91766-1854,Western Association of Schools and Colleges Senior Colleges and University Commission,34.058092,-117.747732,0,0,NA,NA,NULL,NULL,NULL,NULL,NULL,NULL,NULL,NULL,NULL,11470,NULL,NULL,NULL,NULL,NULL,NULL,137640
112561,NA,Sonora,CA,95370,Western Association of Schools and Colleges Accrediting Commission for Community and Junior Colleges,38.030367,-120.388385,0,0,NA,NA,1509,0.6753,0.0371,0.224,0.0265,0.0152,0.004,0.0033,12959,10376,NULL,NULL,NULL,NULL,NULL,NULL,124512
112570,NA,Tarzana,CA,91356-1411,Western Association of Schools and Colleges Senior Colleges and University Commission,34.17972,-118.538793,0,0,NA,NA,493,0.4037,0.1846,0.1197,0.0487,0.0142,0.0142,0.073,39843,6369,NULL,NULL,NULL,NULL,NULL,NULL,76428
112686,NA,Compton,CA,90221-5393,Western Association of Schools and Colleges Accrediting Commission for Community and Junior Colleges,33.878226,-118.209463,0,0,NA,NA,2635,0.0209,0.2896,0.5917,0.0429,0.0027,0.0065,0.03,16997,9370,NULL,NULL,NULL,NULL,NULL,NULL,112440
112826,NA,San Pablo,CA,94806,Western Association of Schools and Colleges Accrediting Commission for Community and Junior Colleges,37.969381,-122.337377,0,0,NA,NA,4429,0.1124,0.1495,0.4547,0.189,0.0014,0.0059,0.0573,12828,9805,NULL,NULL,NULL,NULL,NULL,NULL,117660
113096,NA,Sacramento,CA,95823-5799,Western Association of Schools and Colleges Accrediting Commission for Community and Junior Colleges,38.45295,-121.423108,0,0,NA,NA,12575,0.2367,0.0845,0.2799,0.2591,0.0036,0.0126,0.0672,12112,9447,NULL,NULL,NULL,NULL,NULL,NULL,113364
113111,NA,Yucaipa,CA,92339-1799,Western Association of Schools and Colleges Accrediting Commission for Community and Junior Colleges,34.039178,-117.101173,0,0,NA,NA,4481,0.3256,0.0326,0.5106,0.0643,0.0025,0.0011,0.0538,25759,10208,NULL,NULL,NULL,NULL,NULL,NULL,122496
113193,NA,San Luis Obispo,CA,93403-8106,Western Association of Schools and Colleges Accrediting Commission for Community and Junior Colleges,35.331276,-120.742235,0,0,NA,NA,6961,0.5172,0.0322,0.3281,0.0355,0.004,0.0024,0.0629,19119,10451,NULL,NULL,NULL,NULL,NULL,NULL,125412
113218,NA,El Cajon,CA,92019,Western Association of Schools and Colleges Accrediting Commission for Community and Junior Colleges,32.744954,-116.943507,0,0,NA,NA,6473,0.4391,0.0365,0.3271,0.0474,0.0043,0.0028,0.042,13683,7247,NULL,NULL,NULL,NULL,NULL,NULL,86964
113236,NA,Cypress,CA,90630-5897,Western Association of Schools and Colleges Accrediting Commission for Community and Junior Colleges,33.82833,-118.025143,0,0,NA,NA,12090,0.1311,0.0363,0.5144,0.2398,0.0016,0.0036,0.0532,13898,10440,NULL,NULL,NULL,NULL,NULL,NULL,125280
113333,NA,Cupertino,CA,95014,Western Association of Schools and Colleges Accrediting Commission for Community and Junior Colleges,37.319914,-122.045783,0,0,NA,NA,14706,0.1664,0.0271,0.2856,0.3955,0.0015,0.0046,0.0526,13158,9611,NULL,NULL,NULL,NULL,NULL,NULL,115332
113449,NA,Palm Desert,CA,92260-2740,National Accrediting Commission of Career Arts and Sciences,33.729555,-116.403928,0,0,NA,NA,159,0.2453,0.0314,0.6855,0.0126,0,0,0.0252,NULL,NA,NULL,NULL,NULL,NULL,NULL,NULL,NA
113537,NA,Blue Lake,CA,95525-0816,National Association of Schools of Theatre,40.880924,-123.988808,0,0,NA,NA,13,0.6923,0,0,0,0,0,0.1538,NULL,NA,NULL,NULL,NULL,NULL,NULL,NULL,NA
113573,NA,Palm Desert,CA,92260,Western Association of Schools and Colleges Accrediting Commission for Community and Junior Colleges,33.732108,-116.388271,0,0,NA,NA,8634,0.1542,0.024,0.7402,0.0307,0.003,0.0003,0.0295,19173,11034,NULL,NULL,NULL,NULL,NULL,NULL,132408
113582,1,San Diego,CA,92121,Western Association of Schools and Colleges Senior Colleges and University Commission,32.880926,-117.167374,0,0,1,NA,119,0.4622,0.1092,0.2437,0.0672,0.0336,0,0.0168,39422,6611,NULL,NULL,NULL,NULL,NULL,NULL,79332
113634,NA,Pleasant Hill,CA,94523,Western Association of Schools and Colleges Accrediting Commission for Community and Junior Colleges,37.968516,-122.073142,0,0,NA,NA,15326,0.3198,0.0559,0.2783,0.1892,0.0022,0.0051,0.085,13436,9993,NULL,NULL,NULL,NULL,NULL,NULL,119916
113698,0.9293,San Rafael,CA,94901-2298,Western Association of Schools and Colleges Senior Colleges and University Commission,37.981279,-122.512051,0,0,0.9293,1160,1243,0.2454,0.0386,0.2719,0.3041,0.0217,0.0193,0.0515,66179,9008,NULL,NULL,NULL,NULL,NULL,NULL,108096
113704,NA,Berkeley,CA,94708-1816,Western Association of Schools and Colleges Senior Colleges and University Commission,37.881099,-122.264612,0,0,NA,NA,NULL,NULL,NULL,NULL,NULL,NULL,NULL,NULL,NULL,3217,NULL,NULL,NULL,NULL,NULL,NULL,38604
113856,NA,Monterey Park,CA,91754-6099,Western Association of Schools and Colleges Accrediting Commission for Community and Junior Colleges,34.040531,-118.148785,0,0,NA,NA,25649,0.0941,0.0665,0.6311,0.0807,0.0019,0.0018,0.0089,18616,10715,NULL,NULL,NULL,NULL,NULL,NULL,128580
113980,NA,Torrance,CA,90506,Western Association of Schools and Colleges Accrediting Commission for Community and Junior Colleges,33.885229,-118.329913,0,0,NA,NA,16764,0.1198,0.1294,0.4785,0.12,0.0017,0.0036,0.0369,19650,9974,NULL,NULL,NULL,NULL,NULL,NULL,119688
114114,NA,Santa Monica,CA,90403,Accrediting Commission for Acupuncture and Oriental Medicine,34.030438,-118.485119,0,0,NA,NA,NULL,NULL,NULL,NULL,NULL,NULL,NULL,NULL,NULL,7812,NULL,NULL,NULL,NULL,NULL,NULL,93744
114123,NA,Santa Rosa,CA,95403-2126,Accrediting Council for Independent Colleges and Schools,38.468052,-122.729337,0,0,NA,NA,NULL,NULL,NULL,NULL,NULL,NULL,NULL,NULL,NULL,NA,NULL,NULL,NULL,NULL,NULL,NULL,NA
114266,NA,San Jose,CA,95135-1598,Western Association of Schools and Colleges Accrediting Commission for Community and Junior Colleges,37.30167,-121.76561,0,0,NA,NA,6746,0.0749,0.0234,0.4472,0.3942,0.0022,0.0039,0.0289,19861,14192,NULL,NULL,NULL,NULL,NULL,NULL,170304
114354,0.3597,Los Angeles,CA,90015-1421,Western Association of Schools and Colleges Senior Colleges and University Commission,34.044209,-118.25993,0,0,0.3597,NA,1724,0.3271,0.087,0.25,0.1201,0.0122,0.0093,0.0012,52083,6100,NULL,NULL,NULL,NULL,NULL,NULL,73200
114433,NA,Quincy,CA,95971-9124,Western Association of Schools and Colleges Accrediting Commission for Community and Junior Colleges,39.953101,-120.973067,0,0,NA,NA,1220,0.3664,0.0934,0.3328,0.0352,0.0279,0.0123,0.0033,17276,9476,NULL,NULL,NULL,NULL,NULL,NULL,113712
114460,NA,Sacramento,CA,95834,National Accrediting Commission of Career Arts and Sciences,38.64883,-121.497761,0,0,NA,NA,297,0.3266,0.1111,0.3502,0.0875,0.0202,0.0168,0.0808,NULL,NA,NULL,NULL,NULL,NULL,NULL,NULL,NA
114549,NA,Santa Barbara,CA,93105-3538,Western Association of Schools and Colleges Senior Colleges and University Commission,34.42941,-119.717161,0,0,NA,NA,NULL,NULL,NULL,NULL,NULL,NULL,NULL,NULL,NULL,7035,NULL,NULL,NULL,NULL,NULL,NULL,84420
114585,NA,Santa Cruz,CA,95062,Accrediting Commission for Acupuncture and Oriental Medicine,36.964348,-121.998245,0,0,NA,NA,NULL,NULL,NULL,NULL,NULL,NULL,NULL,NULL,NULL,NA,NULL,NULL,NULL,NULL,NULL,NULL,NA
114637,NA,Torrance,CA,90505,National Accrediting Commission of Career Arts and Sciences,33.809096,-118.35009,0,0,NA,NA,58,0.0862,0.0862,0.3448,0.4655,0,0,0,NULL,NA,NULL,NULL,NULL,NULL,NULL,NULL,NA
114716,NA,Los Altos Hills,CA,94022,Western Association of Schools and Colleges Accrediting Commission for Community and Junior Colleges,37.361655,-122.127964,0,0,NA,NA,10593,0.2886,0.0345,0.3207,0.2437,0.0022,0.0102,0.0547,15141,9865,NULL,NULL,NULL,NULL,NULL,NULL,118380
114734,NA,San Diego,CA,92110,Western Association of Schools and Colleges Senior Colleges and University Commission,32.770816,-117.192073,0,0,NA,NA,NULL,NULL,NULL,NULL,NULL,NULL,NULL,NULL,NULL,7402,NULL,NULL,NULL,NULL,NULL,NULL,88824
114761,NA,Eureka,CA,95501,National Accrediting Commission of Career Arts and Sciences,40.798885,-124.164986,0,0,NA,NA,59,0.5593,0.0169,0.1356,0.0339,0.1864,0.0169,0.0339,NULL,NA,NULL,NULL,NULL,NULL,NULL,NULL,NA
114789,NA,Fresno,CA,93741,Western Association of Schools and Colleges Accrediting Commission for Community and Junior Colleges,36.768164,-119.796096,0,0,NA,NA,15554,0.1881,0.0503,0.5947,0.1211,0.0055,0.0017,0.0311,12737,10096,NULL,NULL,NULL,NULL,NULL,NULL,121152
114813,0.7786,Fresno,CA,93702-4709,Western Association of Schools and Colleges Senior Colleges and University Commission,36.726831,-119.735199,0,0,0.7786,1100,2668,0.2549,0.0472,0.5858,0.042,0.0097,0.0056,0.0037,38688,7738,NULL,NULL,NULL,NULL,NULL,NULL,92856
114840,NA,Pasadena,CA,91182,Western Association of Schools and Colleges Senior Colleges and University Commission,34.14778,-118.140261,0,0,NA,NA,NULL,NULL,NULL,NULL,NULL,NULL,NULL,NULL,NULL,8325,NULL,NULL,NULL,NULL,NULL,NULL,99900
114859,NA,Fullerton,CA,92832-2095,Western Association of Schools and Colleges Accrediting Commission for Community and Junior Colleges,33.875514,-117.918255,0,0,NA,NA,16287,0.1634,0.0298,0.5924,0.1434,0.0017,0.002,0.0461,16615,10434,NULL,NULL,NULL,NULL,NULL,NULL,125208
114938,NA,Gilroy,CA,95020,Western Association of Schools and Colleges Accrediting Commission for Community and Junior Colleges,36.972627,-121.569842,0,0,NA,NA,3744,0.2439,0.0235,0.6181,0.0564,0.0021,0.0037,0.0371,13406,9594,NULL,NULL,NULL,NULL,NULL,NULL,115128
114947,NA,Carlsbad,CA,92008,Accrediting Commission of Career Schools and Colleges,33.131313,-117.318765,0,0,NA,NA,104,0.5385,0.0192,0.1538,0.1154,0,0,0.0385,NULL,NA,NULL,NULL,NULL,NULL,NULL,NULL,NA
115001,NA,Glendale,CA,91208-2894,Western Association of Schools and Colleges Accrediting Commission for Community and Junior Colleges,34.16745,-118.227666,0,0,NA,NA,10107,0.5257,0.0254,0.2858,0.0791,0.0012,0.0012,0.0288,14283,10426,NULL,NULL,NULL,NULL,NULL,NULL,125112
115010,NA,Glendale,CA,91203,Accrediting Bureau of Health Education Schools,34.149771,-118.254719,0,0,NA,NA,305,0.2492,0.0557,0.3639,0.1803,0.0066,0.0197,0.118,NULL,8000,NULL,NULL,NULL,NULL,NULL,NULL,96000
115083,NA,San Francisco,CA,94105-2968,Western Association of Schools and Colleges Senior Colleges and University Commission,37.789374,-122.398969,0,0,NA,NA,679,0.3284,0.2032,0.2077,0.1296,0.0162,0.025,0.0147,NULL,9486,NULL,NULL,NULL,NULL,NULL,NULL,113832
115126,NA,Huntington Beach,CA,92647-2710,Western Association of Schools and Colleges Accrediting Commission for Community and Junior Colleges,33.732531,-118.002568,0,0,NA,NA,8830,0.2558,0.0203,0.3342,0.2952,0.0017,0.0045,0.0489,11843,11874,NULL,NULL,NULL,NULL,NULL,NULL,142488
115214,NA,Berkeley,CA,94709,Commission on Accrediting of the Association of Theological Schools,37.87554,-122.261847,0,0,NA,NA,NULL,NULL,NULL,NULL,NULL,NULL,NULL,NULL,NULL,7390,NULL,NULL,NULL,NULL,NULL,NULL,88680
115296,NA,El Cajon,CA,92020-1799,Western Association of Schools and Colleges Accrediting Commission for Community and Junior Colleges,32.815246,-117.006277,0,0,NA,NA,11455,0.3471,0.042,0.376,0.0635,0.0031,0.0028,0.0481,11295,7839,NULL,NULL,NULL,NULL,NULL,NULL,94068
115357,NA,Riverside,CA,92506,National Accrediting Commission of Career Arts and Sciences,33.943149,-117.391024,0,0,NA,NA,116,0.0862,0.0948,0.7155,0.0862,0.0086,0,0,NULL,NA,NULL,NULL,NULL,NULL,NULL,NULL,NA
115393,NA,Salinas,CA,93901,Western Association of Schools and Colleges Accrediting Commission for Community and Junior Colleges,36.675091,-121.666054,0,0,NA,NA,8635,0.1511,0.0287,0.6591,0.0462,0.0037,0.0029,0.0152,12273,9723,NULL,NULL,NULL,NULL,NULL,NULL,116676
115409,0.0999,Claremont,CA,91711,Western Association of Schools and Colleges Senior Colleges and University Commission,34.106515,-117.709837,0,0,0.0999,1533,905,0.2586,0.0453,0.211,0.2376,0.0044,0.0022,0.0983,63989,14431,NULL,NULL,NULL,NULL,NULL,NULL,173172
115658,NA,Daly City,CA,94014,National Accrediting Commission of Career Arts and Sciences,37.705502,-122.461467,0,0,NA,NA,99,0.0303,0.0303,0.6364,0.1414,0.1313,0,0,NULL,NA,NULL,NULL,NULL,NULL,NULL,NULL,NA
115728,0.9531,Oakland,CA,94619-1699,Western Association of Schools and Colleges Senior Colleges and University Commission,37.802276,-122.187804,0,0,0.9531,NA,592,0.1284,0.1689,0.3243,0.1081,0.0034,0.0101,0.1115,54556,8092,NULL,NULL,NULL,NULL,NULL,NULL,97104
115746,NA,Carpinteria,CA,93013,Western Association of Schools and Colleges Senior Colleges and University Commission,34.420881,-119.580414,0,0,NA,NA,NULL,NULL,NULL,NULL,NULL,NULL,NULL,NULL,NULL,7234,NULL,NULL,NULL,NULL,NULL,NULL,86808
115755,0.9146,Arcata,CA,95521-8299,Western Association of Schools and Colleges Senior Colleges and University Commission,40.877481,-124.078293,0,0,0.9146,NA,5336,0.4681,0.0328,0.3285,0.0277,0.0137,0.0036,0.0633,24219,9796,NULL,NULL,NULL,NULL,NULL,NULL,117552
115773,NA,Stockton,CA,95207,Western Association of Schools and Colleges Senior Colleges and University Commission,38.011489,-121.316918,0,0,NA,NA,197,0.203,0.0711,0.4061,0.0964,0,0.0305,0.0203,24088,5621,NULL,NULL,NULL,NULL,NULL,NULL,67452
115861,NA,Imperial,CA,92251-0158,Western Association of Schools and Colleges Accrediting Commission for Community and Junior Colleges,32.827209,-115.503563,0,0,NA,NA,6385,0.044,0.0125,0.9068,0.006,0.0011,0.0005,0.007,10446,9841,NULL,NULL,NULL,NULL,NULL,NULL,118092
115931,NA,Santa Clara,CA,95051-1303,Accrediting Commission of Career Schools and Colleges,37.368642,-121.969541,0,0,NA,NA,693,0.0981,0.0332,0.6551,0.0491,0,0.0159,0.0043,NULL,5786,NULL,NULL,NULL,NULL,NULL,NULL,69432
116226,NA,Newport Beach,CA,92660,Accrediting Commission of Career Schools and Colleges,33.641393,-117.865722,0,0,NA,NA,110,0.6,0.0182,0.1545,0.1273,0.0091,0,0.0818,NULL,8130,NULL,NULL,NULL,NULL,NULL,NULL,97560
116350,NA,Los Angeles,CA,90036,National Accrediting Commission of Career Arts and Sciences,34.080053,-118.361176,0,0,NA,NA,158,0.3165,0.057,0.4177,0.0949,0.0823,0.0063,0,NULL,NA,NULL,NULL,NULL,NULL,NULL,NULL,NA
116439,NA,Irvine,CA,92618-0301,Western Association of Schools and Colleges Accrediting Commission for Community and Junior Colleges,33.675381,-117.777539,0,0,NA,NA,9140,0.3045,0.0201,0.2519,0.2884,0.0025,0.0024,0.0538,10767,11564,NULL,NULL,NULL,NULL,NULL,NULL,138768
116563,NA,El Cajon,CA,92021,National Accrediting Commission of Career Arts and Sciences,32.794072,-116.94627,0,0,NA,NA,226,0.3009,0.1814,0.3053,0.0575,0.0133,0.0044,0.1239,NULL,NA,NULL,NULL,NULL,NULL,NULL,NULL,NA
116846,NA,Los Angeles,CA,90077-1519,Western Association of Schools and Colleges Senior Colleges and University Commission,34.128153,-118.471706,0,0,NA,NA,22,0.6364,0.0455,0.0909,0,0,0,0.0909,NULL,13118,NULL,NULL,NULL,NULL,NULL,NULL,157416
117052,NA,Reedley,CA,93654,Western Association of Schools and Colleges Accrediting Commission for Community and Junior Colleges,36.605428,-119.458555,0,0,NA,NA,3852,0.1698,0.0296,0.7329,0.0366,0.0023,0.0016,0.0231,12373,9977,NULL,NULL,NULL,NULL,NULL,NULL,119724
117104,0.9397,San Dimas,CA,91773-3298,Western Association of Schools and Colleges Senior Colleges and University Commission,34.098705,-117.829388,0,0,0.9397,NA,419,0.3938,0.0477,0.3938,0.0263,0.0143,0.0072,0.0644,31462,6168,NULL,NULL,NULL,NULL,NULL,NULL,74016
117140,0.7194,La Verne,CA,91750-4401,Western Association of Schools and Colleges Senior Colleges and University Commission,34.100855,-117.773262,0,0,0.7194,1028,3686,0.1744,0.0711,0.6069,0.0456,0.0035,0.006,0.0364,60612,9284,NULL,NULL,NULL,NULL,NULL,NULL,111408
117168,0.833,Laguna Beach,CA,92651,Western Association of Schools and Colleges Senior Colleges and University Commission,33.561448,-117.772564,0,0,0.833,NA,735,0.4721,0.0231,0.2327,0.1442,0.0054,0.0041,0.0653,53081,9260,NULL,NULL,NULL,NULL,NULL,NULL,111120
117195,NA,South Lake Tahoe,CA,96150,Western Association of Schools and Colleges Accrediting Commission for Community and Junior Colleges,38.926797,-119.972574,0,0,NA,NA,1830,0.4082,0.0672,0.3579,0.0639,0.0093,0.0049,0.0459,10703,9212,NULL,NULL,NULL,NULL,NULL,NULL,110544
117238,NA,Lancaster,CA,93534,National Accrediting Commission of Career Arts and Sciences,34.694914,-118.147547,0,0,NA,NA,82,0.2927,0.2805,0.3659,0.0488,0,0,0.0122,NULL,NA,NULL,NULL,NULL,NULL,NULL,NULL,NA
117247,NA,Oakland,CA,94607,Western Association of Schools and Colleges Accrediting Commission for Community and Junior Colleges,37.797257,-122.26283,0,0,NA,NA,5722,0.2045,0.1914,0.2382,0.2303,0.0024,0.0077,0.0605,22364,9840,NULL,NULL,NULL,NULL,NULL,NULL,118080
117274,NA,Susanville,CA,96130,Western Association of Schools and Colleges Accrediting Commission for Community and Junior Colleges,40.432053,-120.633271,0,0,NA,NA,1392,0.403,0.1379,0.3111,0.0395,0.0201,0.0072,0.0431,18311,8201,NULL,NULL,NULL,NULL,NULL,NULL,98412
117283,0.3623,La Puente,CA,91746-3099,Association for Biblical Higher Education,34.030992,-117.989601,0,0,0.3623,NA,49,0.0204,0,0.9796,0,0,0,0,11300,NA,NULL,NULL,NULL,NULL,NULL,NULL,NA
117520,NA,Hayward,CA,94545-2570,Western Association of Schools and Colleges Senior Colleges and University Commission,37.638099,-122.117619,0,0,NA,NA,NULL,NULL,NULL,NULL,NULL,NULL,NULL,NULL,NULL,8027,NULL,NULL,NULL,NULL,NULL,NULL,96324
117557,NA,Oakland,CA,94612-2801,NULL,37.804788,-122.269745,0,0,NA,NA,168,0.1548,0.5179,0.0238,0.0655,0,0,0,22440,6701,NULL,NULL,NULL,NULL,NULL,NULL,80412
117575,NA,El Cajon,CA,92019-1108,Transnational Association of Christian Colleges and Schools,32.799614,-116.905461,0,0,NA,NA,46,0.4565,0.2174,0.2391,0.0435,0,0.0217,0.0217,NULL,5571,NULL,NULL,NULL,NULL,NULL,NULL,66852
117627,0.6607,Riverside,CA,92505-8247,Western Association of Schools and Colleges Senior Colleges and University Commission,33.910704,-117.500054,0,0,0.6607,1023,1270,0.115,0.074,0.4591,0.1622,0.0008,0.0063,0.0433,46046,8020,NULL,NULL,NULL,NULL,NULL,NULL,96240
117636,NA,Loma Linda,CA,92350,Western Association of Schools and Colleges Senior Colleges and University Commission,34.051241,-117.260605,0,0,NA,NA,980,0.248,0.0408,0.3888,0.2429,0,0.002,0.0418,NULL,8935,NULL,NULL,NULL,NULL,NULL,NULL,107220
117645,NA,Long Beach,CA,90808-1706,Western Association of Schools and Colleges Accrediting Commission for Community and Junior Colleges,33.833593,-118.135633,0,0,NA,NA,19918,0.1461,0.1108,0.5899,0.091,0.0013,0.0061,0.0504,11991,7694,NULL,NULL,NULL,NULL,NULL,NULL,92328
117672,NA,Whittier,CA,90604,Western Association of Schools and Colleges Senior Colleges and University Commission,33.922966,-117.983401,0,0,NA,NA,130,0.2385,0.1308,0.3692,0.1769,0,0,0.0308,NULL,7714,NULL,NULL,NULL,NULL,NULL,NULL,92568
117690,NA,Wilmington,CA,90744-2397,Western Association of Schools and Colleges Accrediting Commission for Community and Junior Colleges,33.785825,-118.283549,0,0,NA,NA,5487,0.1172,0.0931,0.6045,0.1053,0.0013,0.0056,0.0326,18904,10764,NULL,NULL,NULL,NULL,NULL,NULL,129168
117706,NA,Woodland Hills,CA,91371-0002,Western Association of Schools and Colleges Accrediting Commission for Community and Junior Colleges,34.183949,-118.575071,0,0,NA,NA,13016,0.2759,0.0459,0.4933,0.0958,0.001,0.0018,0.0401,19386,10522,NULL,NULL,NULL,NULL,NULL,NULL,126264
117715,NA,Los Angeles,CA,90047-4899,Western Association of Schools and Colleges Accrediting Commission for Community and Junior Colleges,33.929586,-118.304674,0,0,NA,NA,3539,0.0718,0.3781,0.4349,0.0424,0.002,0.0025,0.0254,13698,9976,NULL,NULL,NULL,NULL,NULL,NULL,119712
117724,NA,Los Angeles,CA,90015-4181,Western Association of Schools and Colleges Accrediting Commission for Community and Junior Colleges,34.031907,-118.269447,0,0,NA,NA,7867,0.0822,0.1373,0.6723,0.0494,0.0017,0.0013,0.0226,15980,11144,NULL,NULL,NULL,NULL,NULL,NULL,133728
117733,NA,Valley Glen,CA,91401-4096,Western Association of Schools and Colleges Accrediting Commission for Community and Junior Colleges,34.175165,-118.421734,0,0,NA,NA,11201,0.2908,0.0537,0.5132,0.0675,0.0011,0.0009,0.0304,17366,10413,NULL,NULL,NULL,NULL,NULL,NULL,124956
117751,0.6698,Santa Clarita,CA,91321-1200,Western Association of Schools and Colleges Senior Colleges and University Commission,34.381755,-118.518193,0,0,0.6698,NA,1338,0.6278,0.0247,0.1936,0.0426,0.012,0.0075,0.0568,43385,8364,NULL,NULL,NULL,NULL,NULL,NULL,100368
117788,NA,Los Angeles,CA,90029,Western Association of Schools and Colleges Accrediting Commission for Community and Junior Colleges,34.087301,-118.292169,0,0,NA,NA,10494,0.2261,0.0859,0.4929,0.1103,0.0016,0.0018,0.0292,16656,11073,NULL,NULL,NULL,NULL,NULL,NULL,132876
117803,NA,Los Angeles,CA,90033-1084,Western Association of Schools and Colleges Accrediting Commission for Community and Junior Colleges,34.062647,-118.211852,0,0,NA,NA,180,0.2056,0.0389,0.4278,0.2944,0.0111,0,0.0222,NULL,11836,NULL,NULL,NULL,NULL,NULL,NULL,142032
117867,NA,Sylmar,CA,91342-3200,Western Association of Schools and Colleges Accrediting Commission for Community and Junior Colleges,34.314668,-118.4195,0,0,NA,NA,6538,0.1199,0.0353,0.7482,0.0509,0.0017,0.0012,0.0133,17890,10747,NULL,NULL,NULL,NULL,NULL,NULL,128964
117894,NA,Pittsburg,CA,94565,Western Association of Schools and Colleges Accrediting Commission for Community and Junior Colleges,38.006474,-121.860967,0,0,NA,NA,6919,0.2114,0.1207,0.4329,0.1218,0.002,0.0061,0.0711,11897,9910,NULL,NULL,NULL,NULL,NULL,NULL,118920
117946,0.4582,Los Angeles,CA,90045-2659,Western Association of Schools and Colleges Senior Colleges and University Commission,33.97085,-118.415744,0,0,0.4582,1354,6999,0.4243,0.0716,0.2283,0.0976,0.0004,0.001,0.078,59539,12022,NULL,NULL,NULL,NULL,NULL,NULL,144264
117955,NA,Ventura,CA,93001-2729,National Accrediting Commission of Career Arts and Sciences,34.278034,-119.293952,0,0,NA,NA,272,0.136,0,0.7978,0.0184,0.0037,0.0037,0.0074,NULL,NA,NULL,NULL,NULL,NULL,NULL,NULL,NA
118134,NA,Bakersfield,CA,93301,National Accrediting Commission of Career Arts and Sciences,35.386539,-119.02387,0,0,NA,NA,93,0.3333,0.0108,0.6237,0,0,0,0,NULL,NA,NULL,NULL,NULL,NULL,NULL,NULL,NA
118143,NA,Fresno,CA,93710,National Accrediting Commission of Career Arts and Sciences,36.836265,-119.774167,0,0,NA,NA,103,0.2233,0.0583,0.5728,0.0874,0.0291,0,0.0291,NULL,NA,NULL,NULL,NULL,NULL,NULL,NULL,NA
118161,NA,Santa Rosa,CA,95403,National Accrediting Commission of Career Arts and Sciences,38.508385,-122.75777,0,0,NA,NA,76,0.6447,0.0132,0.2895,0.0132,0.0395,0,0,NULL,NA,NULL,NULL,NULL,NULL,NULL,NULL,NA
118198,0.9581,Sacramento,CA,95841-9817,Western Association of Schools and Colleges Accrediting Commission for Community and Junior Colleges,38.661377,-121.342568,0,0,0.9581,NA,550,0.3273,0.1145,0.3127,0.12,0.0073,0.02,0.0309,NULL,3536,NULL,NULL,NULL,NULL,NULL,NULL,42432
118347,NA,Kentfield,CA,94904-2590,Western Association of Schools and Colleges Accrediting Commission for Community and Junior Colleges,37.951918,-122.548758,0,0,NA,NA,3584,0.4637,0.0338,0.3331,0.0745,0.0028,0.0017,0.0642,13784,12424,NULL,NULL,NULL,NULL,NULL,NULL,149088
118541,NA,Rancho Palos Verdes,CA,90275-6299,NULL,33.734887,-118.333371,0,0,NA,NA,443,0.2122,0.0903,0.4673,0.0542,0,0.0023,0.0903,55163,8640,NULL,NULL,NULL,NULL,NULL,NULL,103680
118684,NA,Ukiah,CA,95482,Western Association of Schools and Colleges Accrediting Commission for Community and Junior Colleges,39.188989,-123.228809,0,0,NA,NA,2223,0.4642,0.013,0.3824,0.0378,0.0477,0.0009,0.0216,16011,10539,NULL,NULL,NULL,NULL,NULL,NULL,126468
118693,0.6978,Atherton,CA,94027-4301,Western Association of Schools and Colleges Senior Colleges and University Commission,37.453475,-122.190797,0,0,0.6978,NA,743,0.2032,0.0525,0.3149,0.0754,0.0054,0.0229,0.0983,64663,9962,NULL,NULL,NULL,NULL,NULL,NULL,119544
118718,NA,Merced,CA,95348-2806,Western Association of Schools and Colleges Accrediting Commission for Community and Junior Colleges,37.3353,-120.476464,0,0,NA,NA,7737,0.1768,0.0333,0.6276,0.0757,0.0048,0.0027,0.0293,19487,8807,NULL,NULL,NULL,NULL,NULL,NULL,105684
118772,NA,Oakland,CA,94619-3196,Western Association of Schools and Colleges Accrediting Commission for Community and Junior Colleges,37.789088,-122.167335,0,0,NA,NA,4798,0.2003,0.217,0.2849,0.183,0.0025,0.0063,0.0596,20217,9795,NULL,NULL,NULL,NULL,NULL,NULL,117540
118888,0.7981,Oakland,CA,94613,Western Association of Schools and Colleges Senior Colleges and University Commission,37.781425,-122.182294,0,0,0.7981,1395,438,0.3333,0.1301,0.3402,0.0708,0,0,0.1073,47187,10284,NULL,NULL,NULL,NULL,NULL,NULL,123408
118912,NA,Oceanside,CA,92056-3899,Western Association of Schools and Colleges Accrediting Commission for Community and Junior Colleges,33.190483,-117.302606,0,0,NA,NA,10436,0.3879,0.0356,0.3861,0.0675,0.0049,0.0072,0.0745,12359,13738,NULL,NULL,NULL,NULL,NULL,NULL,164856
118930,NA,Santa Clara,CA,95054-1897,Western Association of Schools and Colleges Accrediting Commission for Community and Junior Colleges,37.391935,-121.980783,0,0,NA,NA,4950,0.1436,0.0356,0.3352,0.3871,0.0016,0.0057,0.0632,13216,11776,NULL,NULL,NULL,NULL,NULL,NULL,141312
118958,NA,Oxnard,CA,93030,National Accrediting Commission of Career Arts and Sciences,34.195384,-119.181423,0,0,NA,NA,81,0,0.037,0.8765,0.037,0,0.0123,0,NULL,NA,NULL,NULL,NULL,NULL,NULL,NULL,NA
118976,NA,Modesto,CA,95350-5800,Western Association of Schools and Colleges Accrediting Commission for Community and Junior Colleges,37.651056,-121.009792,0,0,NA,NA,12949,0.3414,0.0318,0.5342,0.0638,0.0056,0.012,0.0004,18817,10245,NULL,NULL,NULL,NULL,NULL,NULL,122940
118994,NA,Oakland,CA,94609-2419,Accrediting Commission of Career Schools and Colleges,37.827075,-122.265352,0,0,NA,NA,346,0.0665,0.3555,0.3931,0.026,0.0231,0.0145,0.0231,NULL,NA,NULL,NULL,NULL,NULL,NULL,NULL,NA
119058,NA,Monterey,CA,93940,New England Commission on Higher Education,36.599736,-121.897325,0,0,NA,NA,13,0.5385,0,0.1538,0.0769,0,0,0.0769,NULL,10138,NULL,NULL,NULL,NULL,NULL,NULL,121656
119067,NA,Monterey,CA,93940-4799,Western Association of Schools and Colleges Accrediting Commission for Community and Junior Colleges,36.590558,-121.884931,0,0,NA,NA,5706,0.3326,0.03,0.469,0.0624,0.0028,0.0081,0.0613,17963,9447,NULL,NULL,NULL,NULL,NULL,NULL,113364
119137,NA,Moorpark,CA,93021-1695,Western Association of Schools and Colleges Accrediting Commission for Community and Junior Colleges,34.301146,-118.834528,0,0,NA,NA,11336,0.4005,0.0213,0.4047,0.0765,0.0021,0.002,0.0653,9520,9615,NULL,NULL,NULL,NULL,NULL,NULL,115380
119164,NA,Walnut,CA,91789-1399,Western Association of Schools and Colleges Accrediting Commission for Community and Junior Colleges,34.047764,-117.846629,0,0,NA,NA,22907,0.0936,0.0357,0.6368,0.1862,0.0016,0.0023,0.0313,11578,11256,NULL,NULL,NULL,NULL,NULL,NULL,135072
119173,0.9012,Los Angeles,CA,90049-1599,Western Association of Schools and Colleges Senior Colleges and University Commission,34.085315,-118.482879,0,1,0.9012,NA,1898,0.0964,0.0601,0.5674,0.1654,0.0021,0.0042,0.0148,56544,10354,NULL,NULL,NULL,NULL,NULL,NULL,124248
119216,NA,San Jacinto,CA,92583-2399,Western Association of Schools and Colleges Accrediting Commission for Community and Junior Colleges,33.806748,-116.971169,0,0,NA,NA,12452,0.2681,0.0538,0.485,0.0636,0.0045,0.0031,0.0552,12543,11084,NULL,NULL,NULL,NULL,NULL,NULL,133008
119270,0.7857,Hollywood,CA,90028,National Association of Schools of Music,34.101265,-118.337582,0,0,0.7857,NA,744,0.2675,0.0685,0.1116,0.0874,0.0054,0.0027,0.047,40208,2543,NULL,NULL,NULL,NULL,NULL,NULL,30516
119331,NA,Napa,CA,94558-6236,Western Association of Schools and Colleges Accrediting Commission for Community and Junior Colleges,38.274081,-122.274381,0,0,NA,NA,3777,0.2483,0.0511,0.4692,0.1409,0.0029,0.0061,0.058,20220,9802,NULL,NULL,NULL,NULL,NULL,NULL,117624
119553,NA,Emeryville,CA,94608-2008,Accrediting Council for Continuing Education & Training,37.841898,-122.287672,0,0,NA,NA,1201,0.3389,0.1049,0.2348,0.0824,0.0158,0.0108,0.1224,NULL,NA,NULL,NULL,NULL,NULL,NULL,NULL,NA
119605,0.5455,San Diego,CA,92123,Western Association of Schools and Colleges Senior Colleges and University Commission,32.829299,-117.127296,0,0,0.5455,NA,7160,0.3272,0.1041,0.3068,0.0735,0.0061,0.0112,0.0615,18576,10145,NULL,NULL,NULL,NULL,NULL,NULL,121740
119678,NA,Monterey,CA,93943,Western Association of Schools and Colleges Senior Colleges and University Commission,36.597159,-121.874248,0,0,NA,NA,NULL,NULL,NULL,NULL,NULL,NULL,NULL,NULL,NULL,14550,NULL,NULL,NULL,NULL,NULL,NULL,174600
119775,0.6085,San Diego,CA,92101,Western Association of Schools and Colleges Senior Colleges and University Commission,32.71331,-117.153305,0,0,0.6085,NA,301,0.392,0.0764,0,0.1229,0.0299,0.0033,0.0133,55686,6756,NULL,NULL,NULL,NULL,NULL,NULL,81072
119951,NA,Modesto,CA,95350-2381,National Accrediting Commission of Career Arts and Sciences,37.677778,-120.992753,0,0,NA,NA,221,0.3529,0.1086,0.4615,0.0452,0,0.009,0.0226,NULL,NA,NULL,NULL,NULL,NULL,NULL,NULL,NA
120069,NA,Pomona,CA,91768,Accrediting Commission of Career Schools and Colleges,34.062043,-117.751227,0,0,NA,NA,190,0.0895,0.0684,0.3842,0.0421,0.0263,0.0105,0.3789,NULL,NA,NULL,NULL,NULL,NULL,NULL,NULL,NA
120078,NA,West Covina,CA,91790,Accrediting Commission of Career Schools and Colleges,34.072071,-117.949583,0,0,NA,NA,384,0.3229,0.0365,0.1484,0.0625,0.0365,0.0182,0.2656,NULL,6683,NULL,NULL,NULL,NULL,NULL,NULL,80196
120087,NA,Van Nuys,CA,91411,Accrediting Commission of Career Schools and Colleges,34.189497,-118.450184,0,0,NA,NA,171,0.0877,0.0936,0.614,0.1053,0.0058,0.0058,0.0819,NULL,NA,NULL,NULL,NULL,NULL,NULL,NULL,NA
120166,0.45,Fremont,CA,94539,NULL,37.485056,-121.927899,0,0,0.45,NA,6,0,0,0,0,0,0,0,NULL,5463,NULL,NULL,NULL,NULL,NULL,NULL,65556
120184,NA,Belmont,CA,94002-1908,Western Association of Schools and Colleges Senior Colleges and University Commission,37.517111,-122.284794,0,0,NA,NA,0,0,0,0,0,0,0,0,NULL,8407,NULL,NULL,NULL,NULL,NULL,NULL,100884
120254,0.3824,Los Angeles,CA,90041-3392,Western Association of Schools and Colleges Senior Colleges and University Commission,34.127124,-118.210908,0,0,0.3824,1422,1952,0.4698,0.0456,0.1578,0.1347,0,0.0015,0.1112,72382,11376,NULL,NULL,NULL,NULL,NULL,NULL,136512
120290,NA,Fremont,CA,94539-0390,Western Association of Schools and Colleges Accrediting Commission for Community and Junior Colleges,37.529931,-121.911795,0,0,NA,NA,6929,0.152,0.0333,0.2465,0.4467,0.0009,0.0088,0.0548,16828,12336,NULL,NULL,NULL,NULL,NULL,NULL,148032
120342,NA,Costa Mesa,CA,92626,Western Association of Schools and Colleges Accrediting Commission for Community and Junior Colleges,33.66927,-117.909086,0,0,NA,NA,15761,0.3012,0.0169,0.3341,0.2277,0.0024,0.0027,0.0509,12400,11727,NULL,NULL,NULL,NULL,NULL,NULL,140724
120403,0.7982,Los Angeles,CA,90045-3505,Western Association of Schools and Colleges Senior Colleges and University Commission,33.956607,-118.416615,0,0,0.7982,1237,1191,0.2208,0.0537,0.2007,0.1545,0.0017,0,0.0588,66930,8226,NULL,NULL,NULL,NULL,NULL,NULL,98712
120421,NA,Oxnard,CA,93033-6699,Western Association of Schools and Colleges Accrediting Commission for Community and Junior Colleges,34.166104,-119.157604,0,0,NA,NA,5789,0.147,0.0202,0.7329,0.0522,0.0017,0.0036,0.0307,9504,9236,NULL,NULL,NULL,NULL,NULL,NULL,110832
120537,0.3997,Fullerton,CA,92831-3199,Western Association of Schools and Colleges Senior Colleges and University Commission,33.87616,-117.88573,0,0,0.3997,1090,619,0.3489,0.0889,0.2504,0.0355,0.0097,0.0178,0.1357,44331,5666,NULL,NULL,NULL,NULL,NULL,NULL,67992
120661,0.9879,San Diego,CA,92113-1964,Accrediting Commission of Career Schools and Colleges,32.702814,-117.102845,0,0,0.9879,NA,735,0.0694,0.0422,0.2816,0.0558,0.0027,0.0082,0.0014,NULL,6707,NULL,NULL,NULL,NULL,NULL,NULL,80484
120698,NA,Palo Alto,CA,94304-1337,Western Association of Schools and Colleges Senior Colleges and University Commission,37.382216,-122.187437,0,0,NA,NA,64,0.2656,0.0313,0.2188,0.1094,0,0,0.0313,NULL,13014,NULL,NULL,NULL,NULL,NULL,NULL,156168
120768,0.1304,Pasadena,CA,91103,Western Association of Schools and Colleges Senior Colleges and University Commission,34.153382,-118.151323,0,0,0.1304,NA,479,0.142,0.1148,0.5762,0.048,0.0063,0.0021,0.0438,NULL,6109,NULL,NULL,NULL,NULL,NULL,NULL,73308
120795,NA,Berkeley,CA,94709,Commission on Accrediting of the Association of Theological Schools,37.87669,-122.263155,0,0,NA,NA,NULL,NULL,NULL,NULL,NULL,NULL,NULL,NULL,NULL,8047,NULL,NULL,NULL,NULL,NULL,NULL,96564
120838,NA,Los Angeles,CA,90010-2263,Accrediting Commission of Career Schools and Colleges,34.061315,-118.298408,0,0,NA,NA,2,0,0,0,0,0,0,0,NULL,NA,NULL,NULL,NULL,NULL,NULL,NULL,NA
120865,0.5773,Angwin,CA,94508-9707,Western Association of Schools and Colleges Senior Colleges and University Commission,38.570585,-122.440308,0,0,0.5773,NA,799,0.214,0.0688,0.3129,0.2416,0.0025,0.0038,0.0788,45003,6281,NULL,NULL,NULL,NULL,NULL,NULL,75372
120883,0.793,Stockton,CA,95211-0197,Western Association of Schools and Colleges Senior Colleges and University Commission,37.981424,-121.312301,0,0,0.793,1265,3269,0.2095,0.0401,0.245,0.3542,0.0028,0.0049,0.0447,57004,11095,NULL,NULL,NULL,NULL,NULL,NULL,133140
120953,NA,Blythe,CA,92225,Western Association of Schools and Colleges Accrediting Commission for Community and Junior Colleges,33.661538,-114.651698,0,0,NA,NA,3734,0.4068,0.0876,0.3838,0.0404,0.011,0.0078,0.0319,17798,9259,NULL,NULL,NULL,NULL,NULL,NULL,111108
120971,NA,San Marcos,CA,92069-1487,Western Association of Schools and Colleges Accrediting Commission for Community and Junior Colleges,33.149483,-117.183978,0,0,NA,NA,13873,0.3601,0.0274,0.4497,0.0653,0.0054,0.0045,0.0635,11680,11401,NULL,NULL,NULL,NULL,NULL,NULL,136812
121044,NA,Pasadena,CA,91106-2003,Western Association of Schools and Colleges Accrediting Commission for Community and Junior Colleges,34.144552,-118.118196,0,0,NA,NA,19090,0.1554,0.035,0.4858,0.2435,0.001,0.0014,0.0381,12197,9542,NULL,NULL,NULL,NULL,NULL,NULL,114504
121150,0.5271,Malibu,CA,90263,Western Association of Schools and Colleges Senior Colleges and University Commission,34.037786,-118.707077,0,0,0.5271,1342,3706,0.4649,0.0453,0.1754,0.1338,0.0016,0.0013,0.0739,77912,12961,NULL,NULL,NULL,NULL,NULL,NULL,155532
121257,0.1831,Claremont,CA,91711-6101,Western Association of Schools and Colleges Senior Colleges and University Commission,34.104107,-117.706675,0,0,0.1831,NA,1168,0.5009,0.0479,0.1267,0.1164,0.006,0.0026,0.0916,58504,11766,NULL,NULL,NULL,NULL,NULL,NULL,141192
121275,NA,San Diego,CA,92115-3919,NULL,32.76373,-117.063483,0,0,NA,NA,64,0.3438,0.1563,0.2656,0.1406,0,0.0156,0.0156,35459,5029,NULL,NULL,NULL,NULL,NULL,NULL,60348
121309,0.8366,San Diego,CA,92106-2899,Western Association of Schools and Colleges Senior Colleges and University Commission,32.718391,-117.250265,0,0,0.8366,1256,3170,0.5268,0.0189,0.2675,0.0722,0.0032,0.0032,0.0767,52834,10559,NULL,NULL,NULL,NULL,NULL,NULL,126708
121345,0.0664,Claremont,CA,91711-6319,Western Association of Schools and Colleges Senior Colleges and University Commission,34.099027,-117.714556,0,0,0.0664,1520,1747,0.3429,0.0882,0.1603,0.1734,0.0029,0.0046,0.0813,70094,13749,NULL,NULL,NULL,NULL,NULL,NULL,164988
121363,NA,Porterville,CA,93257,Western Association of Schools and Colleges Accrediting Commission for Community and Junior Colleges,36.049256,-119.014368,0,0,NA,NA,2725,0.1512,0.0099,0.7761,0.0275,0.0066,0.0011,0.0242,12278,10356,NULL,NULL,NULL,NULL,NULL,NULL,124272
121433,NA,El Monte,CA,91731,National Accrediting Commission of Career Arts and Sciences,34.075561,-118.039028,0,0,NA,NA,137,0.0219,0,0.7518,0.0146,0,0,0,NULL,NA,NULL,NULL,NULL,NULL,NULL,NULL,NA
121619,NA,Santa Ana,CA,92706-3398,Western Association of Schools and Colleges Accrediting Commission for Community and Junior Colleges,33.759309,-117.887558,0,0,NA,NA,20846,0.1982,0.0145,0.5193,0.0807,0.0022,0.0022,0.0178,11661,11543,NULL,NULL,NULL,NULL,NULL,NULL,138516
121628,NA,Santa Monica,CA,90401-3208,Western Association of Schools and Colleges Senior Colleges and University Commission,34.00973,-118.490655,0,0,NA,NA,NULL,NULL,NULL,NULL,NULL,NULL,NULL,NULL,NULL,NA,NULL,NULL,NULL,NULL,NULL,NULL,NA
121637,NA,Redding,CA,96003,National Accrediting Commission of Career Arts and Sciences,40.597114,-122.387248,0,0,NA,NA,116,0.6897,0.0345,0.1638,0.0517,0.0259,0.0172,0.0172,NULL,NA,NULL,NULL,NULL,NULL,NULL,NULL,NA
121691,0.8297,Redlands,CA,92373-0999,Western Association of Schools and Colleges Senior Colleges and University Commission,34.064218,-117.163218,0,0,0.8297,1231,2596,0.379,0.0447,0.4049,0.0574,0.0081,0.0046,0.0693,62643,10501,NULL,NULL,NULL,NULL,NULL,NULL,126012
121707,NA,Eureka,CA,95501-9300,Western Association of Schools and Colleges Accrediting Commission for Community and Junior Colleges,40.698427,-124.195293,0,0,NA,NA,2947,0.5124,0.038,0.2457,0.0366,0.0397,0.0041,0.0859,12318,7971,NULL,NULL,NULL,NULL,NULL,NULL,95652
121859,NA,Upland,CA,91786,National Accrediting Commission of Career Arts and Sciences,34.108247,-117.631783,0,0,NA,NA,194,0.1907,0.0155,0.6804,0.0722,0.0052,0.0052,0.0103,NULL,NA,NULL,NULL,NULL,NULL,NULL,NULL,NA
121868,NA,Corona,CA,92881,National Accrediting Commission of Career Arts and Sciences,33.847649,-117.535638,0,0,NA,NA,187,0.1765,0.123,0.6043,0.0588,0,0.0107,0.0214,NULL,NA,NULL,NULL,NULL,NULL,NULL,NULL,NA
121886,NA,Whittier,CA,90601-1616,Western Association of Schools and Colleges Accrediting Commission for Community and Junior Colleges,34.019821,-118.033506,0,0,NA,NA,13960,0.0552,0.0168,0.8069,0.0473,0.0017,0.0014,0.0101,12763,10993,NULL,NULL,NULL,NULL,NULL,NULL,131916
121901,NA,Riverside,CA,92506,Western Association of Schools and Colleges Accrediting Commission for Community and Junior Colleges,33.970918,-117.384323,0,0,NA,NA,15516,0.1542,0.0715,0.6534,0.0682,0.0021,0.0035,0.036,12940,12244,NULL,NULL,NULL,NULL,NULL,NULL,146928
122117,NA,Los Angeles,CA,90020-1704,Accrediting Commission for Acupuncture and Oriental Medicine,34.06597,-118.289523,0,0,NA,NA,2,0,0,0.5,0.5,0,0,0,NULL,5359,NULL,NULL,NULL,NULL,NULL,NULL,64308
122180,NA,Sacramento,CA,95822-1386,Western Association of Schools and Colleges Accrediting Commission for Community and Junior Colleges,38.541096,-121.491139,0,0,NA,NA,16654,0.2679,0.0859,0.3115,0.1779,0.0046,0.0121,0.0652,13642,9471,NULL,NULL,NULL,NULL,NULL,NULL,113652
122205,NA,Mission Viejo,CA,92692-3635,Western Association of Schools and Colleges Accrediting Commission for Community and Junior Colleges,33.553346,-117.665584,0,0,NA,NA,15431,0.4613,0.0234,0.2869,0.1146,0.0026,0.0028,0.0598,13443,11775,NULL,NULL,NULL,NULL,NULL,NULL,141300
122296,NA,Oakland,CA,94609,Western Association of Schools and Colleges Senior Colleges and University Commission,37.82029,-122.266331,0,0,NA,NA,677,0.2467,0.096,0.2186,0.3205,0,0.0148,0.0591,NULL,11127,NULL,NULL,NULL,NULL,NULL,NULL,133524
122339,NA,San Diego,CA,92101-4787,Western Association of Schools and Colleges Accrediting Commission for Community and Junior Colleges,32.717403,-117.152733,0,0,NA,NA,10852,0.2541,0.0869,0.4525,0.117,0.0037,0.0029,0.0681,14837,9301,NULL,NULL,NULL,NULL,NULL,NULL,111612
122375,NA,San Diego,CA,92111-4998,Western Association of Schools and Colleges Accrediting Commission for Community and Junior Colleges,32.803825,-117.169165,0,0,NA,NA,15217,0.2903,0.0612,0.3978,0.152,0.0029,0.0046,0.0735,12900,9161,NULL,NULL,NULL,NULL,NULL,NULL,109932
122384,NA,San Diego,CA,92126-2999,Western Association of Schools and Colleges Accrediting Commission for Community and Junior Colleges,32.909757,-117.120261,0,0,NA,NA,10881,0.3439,0.0484,0.319,0.1859,0.003,0.0059,0.0708,13234,8978,NULL,NULL,NULL,NULL,NULL,NULL,107736
122409,0.379,San Diego,CA,92182-0001,Western Association of Schools and Colleges Senior Colleges and University Commission,32.77525,-117.071228,0,0,0.379,NA,30991,0.3436,0.0418,0.3368,0.1343,0.0027,0.0027,0.069,16194,10936,NULL,NULL,NULL,NULL,NULL,NULL,131232
122436,0.527,San Diego,CA,92110-2492,Western Association of Schools and Colleges Senior Colleges and University Commission,32.770816,-117.192073,0,0,0.527,NA,5601,0.486,0.0339,0.2337,0.0777,0.0029,0.0021,0.0734,68002,12520,NULL,NULL,NULL,NULL,NULL,NULL,150240
122454,NA,San Francisco,CA,94133-2299,NULL,37.803575,-122.417,0,0,NA,NA,26,0.4231,0.0385,0.2308,0.0385,0.0385,0,0,NULL,9284,NULL,NULL,NULL,NULL,NULL,NULL,111408
122506,0.4645,San Francisco,CA,94102-6011,Western Association of Schools and Colleges Senior Colleges and University Commission,37.775543,-122.420292,0,0,0.4645,NA,228,0.386,0.0351,0.1096,0.0702,0,0,0.0658,69637,14965,NULL,NULL,NULL,NULL,NULL,NULL,179580
122597,0.9292,San Francisco,CA,94132,Western Association of Schools and Colleges Senior Colleges and University Commission,37.721224,-122.476799,0,0,0.9292,NA,22563,0.1568,0.0586,0.3741,0.2532,0.0016,0.0068,0.0547,23297,10761,NULL,NULL,NULL,NULL,NULL,NULL,129132
122612,0.7092,San Francisco,CA,94117-1080,Western Association of Schools and Colleges Senior Colleges and University Commission,37.776618,-122.450477,0,0,0.7092,1305,5937,0.2395,0.0655,0.2062,0.2661,0.001,0.0052,0.1031,72280,13123,NULL,NULL,NULL,NULL,NULL,NULL,157476
122649,NA,Clovis,CA,93612-1312,Western Association of Schools and Colleges Senior Colleges and University Commission,36.82448,-119.697657,0,0,NA,NA,NULL,NULL,NULL,NULL,NULL,NULL,NULL,NULL,NULL,9933,NULL,NULL,NULL,NULL,NULL,NULL,119196
122658,NA,Stockton,CA,95207,Western Association of Schools and Colleges Accrediting Commission for Community and Junior Colleges,37.995562,-121.317597,0,0,NA,NA,13242,0.1674,0.0645,0.4924,0.2024,0.0026,0.0063,0.0542,21669,10510,NULL,NULL,NULL,NULL,NULL,NULL,126120
122685,NA,Visalia,CA,93291-9283,Western Association of Schools and Colleges Senior Colleges and University Commission,36.328049,-119.384981,0,0,NA,NA,2124,0.2189,0.0725,0.5541,0.0683,0.0132,0.0127,0.0264,NULL,6384,NULL,NULL,NULL,NULL,NULL,NULL,76608
122694,NA,Bakersfield,CA,93309-2659,Western Association of Schools and Colleges Senior Colleges and University Commission,35.352848,-119.062071,0,0,NA,NA,788,0.1916,0.047,0.6371,0.0495,0.0102,0.0051,0.0178,NULL,5721,NULL,NULL,NULL,NULL,NULL,NULL,68652
122728,0.7778,Rocklin,CA,95765-3707,Western Association of Schools and Colleges Senior Colleges and University Commission,38.819728,-121.292312,0,0,0.7778,NA,1195,0.4678,0.0494,0.2276,0.0502,0.0126,0.0142,0.0243,51573,7439,NULL,NULL,NULL,NULL,NULL,NULL,89268
122746,NA,San Jose,CA,95128-2798,Western Association of Schools and Colleges Accrediting Commission for Community and Junior Colleges,37.315827,-121.926185,0,0,NA,NA,6076,0.1149,0.0528,0.4832,0.2617,0.0012,0.0063,0.0392,21947,14320,NULL,NULL,NULL,NULL,NULL,NULL,171840
122755,0.8437,San Jose,CA,95192-0001,Western Association of Schools and Colleges Senior Colleges and University Commission,37.336569,-121.880621,0,0,0.8437,NA,28190,0.1304,0.0367,0.2991,0.3785,0.0009,0.0055,0.0504,24198,10570,NULL,NULL,NULL,NULL,NULL,NULL,126840
122791,NA,San Mateo,CA,94402-3784,Western Association of Schools and Colleges Accrediting Commission for Community and Junior Colleges,37.535698,-122.334801,0,0,NA,NA,5553,0.2512,0.0288,0.3205,0.2309,0.0013,0.0249,0.0686,9076,11474,NULL,NULL,NULL,NULL,NULL,NULL,137688
122834,NA,Bakersfield,CA,93309,NULL,35.359544,-119.061264,0,0,NA,NA,9,0.1111,0.1111,0.6667,0.1111,0,0,0,NULL,NA,NULL,NULL,NULL,NULL,NULL,NULL,NA
122889,NA,Santa Barbara,CA,93109-2394,Western Association of Schools and Colleges Accrediting Commission for Community and Junior Colleges,34.406788,-119.698045,0,0,NA,NA,10570,0.4088,0.0232,0.3743,0.0488,0.0031,0.0019,0.0565,18904,9861,NULL,NULL,NULL,NULL,NULL,NULL,118332
122931,0.5398,Santa Clara,CA,95053,Western Association of Schools and Colleges Senior Colleges and University Commission,37.348362,-121.93784,0,0,0.5398,1418,5887,0.4201,0.0263,0.1795,0.2042,0.0005,0.0024,0.0916,72321,13444,NULL,NULL,NULL,NULL,NULL,NULL,161328
122977,NA,Santa Monica,CA,90405-1628,Western Association of Schools and Colleges Accrediting Commission for Community and Junior Colleges,34.017022,-118.469765,0,0,NA,NA,21482,0.2562,0.0833,0.421,0.0939,0.0013,0.0018,0.0507,11330,11980,NULL,NULL,NULL,NULL,NULL,NULL,143760
123013,NA,Santa Rosa,CA,95401-4395,Western Association of Schools and Colleges Accrediting Commission for Community and Junior Colleges,38.45709,-122.718974,0,0,NA,NA,12916,0.4192,0.0215,0.3893,0.0406,0.0051,0.0037,0.0529,15082,10901,NULL,NULL,NULL,NULL,NULL,NULL,130812
